name,latitude,longitude,free_bikes
208.名鉄協商パーキング太閤第12,35.166589,136.878612,1
058.金山駅南駅前広場ステーション,35.142331,136.900594,1
429.TENAS泉,35.175191,136.915203,0
104.ファミリーマート葵店,35.170937,136.920249,0
190.名鉄協商パーキング熱田神宮北,35.128727,136.908447,1
423.ネオ笹島ビル,35.166954,136.887255,0
079.エディオン名古屋本店,35.163562,136.890869,5
389.アーバニア志賀公園,35.203918,136.906647,3
254.ファミリーマート都通二丁目店,35.174831,136.936866,0
511.千代田2丁目,35.158616,136.9131,6
418.名鉄協商パーキング陽明町1丁目,35.137433,136.946638,4
307.名鉄協商パーキング吹上公園,35.15898,136.932918,0
162.名鉄協商パーキング新栄第２,35.16552,136.917535,0
043.グランルージュ栄2,35.16311,136.913056,0
526.瑞穂郵便局,35.125144,136.934112,2
501.昭和郵便局,35.14056,136.933509,3
540.名鉄協商パーキング大曽根駅前,35.190288,136.936239,0
230. CreCer（クレセール）,35.148896,136.884327,1
465.ファミリーマート昭和鶴舞二丁目店,35.152157,136.916643,3
522.名鉄協商パーキング清住町第３,35.162501,136.969073,1
238.ファミリーマート今池南店,35.164412,136.936575,2
504.メイクス新栄,35.164868,136.91851,0
026.名鉄協商パーキング納屋橋,35.167399,136.891131,5
464.第2名古屋三交ビル,35.173078,136.88817,6
109.ファミリーマート岩塚本通五丁目店,35.157846,136.842945,5
362.プレイランドキャッスル尾頭橋店,35.144376,136.893348,0
220.ファミリーマート千種天満通店,35.179525,136.955591,0
294.名鉄協商パーキング亀の井3丁目,35.163018,137.002282,7
527.中川郵便局,35.140651,136.861513,13
124.名鉄協商パーキング白川公園,35.165423,136.898113,8
502.愛知東邦大学,35.170631,136.987182,2
077.グランメール城西,35.182883,136.893885,3
448.大須観音,35.159761,136.898534,5
142.ＤＰスクエア錦,35.170365,136.893986,2
312.KOMA-HILLS 東山公園,35.163636,136.97191,3
416.RAKU SPA GARDEN 名古屋,35.178445,136.978997,2
248.カーサナカムラ,35.172806,136.85932,2
235.ファミリーマート城西病院前店,35.159109,136.864731,8
039.納屋橋ゆめ広場,35.166138,136.89223,2
291.Felice（フェリーチェ）,35.184061,136.863799,0
422.笈瀬川自転車駐車場,35.174968,136.880084,4
201.第三ミヤチビルディング,35.15752,136.909958,0
268.アーバンネット名古屋ビル,35.173355,136.910131,13
496.中村郵便局,35.166483,136.863743,0
523.フォレシティ桜山,35.137462,136.930897,1
388.アーバンラフレ志賀,35.204446,136.914247,0
121.ファミリーマート柳原二丁目店,35.191195,136.908134,1
096.ファミリーマート南武平町店,35.163715,136.91096,2
406.名鉄協商パーキング一社駅北第2,35.170088,136.996938,1
053.名鉄協商パーキング金山西,35.145419,136.896408,0
500.名東郵便局,35.166385,137.005754,2
319.カレント新栄,35.168589,136.918396,2
529.名古屋北郵便局,35.203329,136.92363,5
368.テルッツォ赤坂,35.182148,136.95882,1
224.ファミリーマート名西稲生店,35.209847,136.898568,0
345.名鉄協商パーキング十王町第2,35.179756,136.869997,1
470.三洋堂書店いりなか店,35.142959,136.955,2
210.サンモール菊井,35.180106,136.886733,0
450.名古屋工業大学北門,35.159253,136.924402,3
276.イオンタウン千種(1)(2),35.161541,136.923512,0
074.St.Regis IZUMI (セントレジス泉）,35.177253,136.910716,1
054.Ｒ＆Ｂホテル名古屋駅前,35.16636,136.887,1
538.PALET.NU,35.15004,136.87915,1
528.名古屋西郵便局,35.188666,136.883384,0
138.相鉄フレッサイン名古屋駅新幹線口,35.167547,136.879824,0
072.名鉄協商パーキング栄5丁目南,35.16256,136.914532,1
216.JR大曽根駅（南改札）,35.188959,136.936734,5
375.名鉄協商パーキング筒井3丁目第4,35.175623,136.929609,4
323.名鉄協商パーキング上社駅南第2,35.173638,137.008742,2
221.ファミリーマート名古屋西高校前店,35.189597,136.883336,0
024.名鉄協商パーキング神宮前駅東街区立体駐車場,35.125854,136.913644,0
160.名駅東ビル,35.171655,136.891745,1
407.JR尾頭橋駅,35.14697,136.890978,0
013.名鉄協商パーキング名駅4丁目第8,35.169291,136.888481,4
481.ラウンドテラス伏見,35.168776,136.893985,2
211.TENAS丸の内,35.177613,136.89906,0
037.名鉄協商パーキング大須MultinaBox駐輪場,35.160691,136.905421,4
441.矢場町,35.162667,136.90704,5
115.ファミリーマート城西二丁目店,35.184569,136.893505,0
585.メイクス名駅太閤,35.162895,136.879672,1
278.タウンライフ本郷駅前,35.176061,137.015739,9
451.名古屋工業大学正門,35.156489,136.923447,8
372.iiＮＥ ＭＡＲＳＨＥ,35.127352,136.92436,0
267.ファミリーマート名古屋東大曽根店,35.186117,136.936664,1
521.太閤一丁目,35.166424,136.880672,0
209.名鉄交通ビル,35.155204,136.891753,2
014.名鉄協商パーキング名駅3丁目PB,35.174423,136.88603,3
420.六番町南自転車駐車場,35.123334,136.888138,0
269.グローバルゲート,35.16155,136.882457,4
580.名鉄協商パーキング高畑駅北第２,35.142984,136.85142,1
169.名鉄協商パーキング城西4丁目第6,35.191454,136.892431,0
272.ファミリーマート千成通店,35.16334,136.86731,3
353.ヨシヅヤYストア笹塚食品館,35.199789,136.883109,2
413.名鉄協商パーキング児玉2丁目第3,35.194539,136.885717,0
316.ヨシヅヤ名古屋名西店,35.190027,136.877471,2
550.愛知学院大学 楠元キャンパス,35.167655,136.962055,3
246.キャッスルタウン記念橋,35.151266,136.90848,0
543.名鉄協商パーキング神宮前北,35.126985,136.911023,0
007. 名鉄協商パーキング  かこまち,35.160884,136.891448,0
033.名鉄協商パーキング新栄1丁目第15,35.165035,136.919557,0
285.錦2丁目ポート長島町通第２,35.169818,136.899759,6
304.NTTコミュニケーションズ代官町ビル,35.174412,136.924261,0
129.新栄第7ロイヤルマンション,35.164312,136.9185,0
356.車道駅ステーション（東側）,35.17286,136.930753,2
161.扇港電機,35.165312,136.864981,0
587.名鉄協商パーキング石川橋,35.14036,136.944985,5
265.徳川園,35.18551,136.933086,2
567.若鳩ハイツ,35.176787,136.867578,5
068.金山駅東口,35.142426,136.902294,3
562.ガーデンビル城下,35.194666,136.970578,1
114.則武新町立体駐車場前,35.181193,136.880191,0
191.東横INN 名古屋金山,35.146424,136.89776,1
432.千種東住宅,35.177985,136.948668,1
417.プレイランドキャッスル上社店,35.174317,137.009497,4
571.桧ケ根公園 西側入口(長久手市中央図書館 入口)前,35.181544,137.038988,2
482.中部電力パワーグリッド中村営業所,35.167963,136.862336,3
147.名鉄協商パーキング東桜第2,35.173935,136.918587,0
120.ファミリーマート名古屋千代田店,35.153325,136.911482,0
382.UR日比野,35.131934,136.891409,6
181.hostel nico,35.156937,136.903523,0
390.アーバンラフレ鳩岡,35.206884,136.912818,12
360.ドコモショップ千代田橋店,35.185767,136.969478,3
575.八事駅前,35.137696,136.963403,2
329.マルハン茶屋が坂店,35.183931,136.961993,9
454.COLLECT MARK 金山（1）,35.142625,136.90288,4
445.住吉通,35.166748,136.903581,4
112.サンプラザ金山,35.146467,136.900576,1
016.名鉄協商パーキング栄Ｍ,35.165929,136.910029,5
173.天王崎橋上流右岸広場ステーション,35.166151,136.891872,1
564.名鉄協商パーキング金屋1丁目,35.203339,136.950535,3
403.コート・サイド杁中,35.143955,136.954246,2
119.ファミリーマート那古野南店,35.17497,136.887116,3
133.愛知韓国人会館,35.17823,136.876331,3
492.星が丘元町,35.161148,136.983014,6
097.ファミリーマート金山五丁目店,35.144183,136.906696,1
189.ファミリーマート東外堀町店,35.178692,136.909857,1
395.ファミリーマート瑞穂通二丁目店,35.134154,136.933868,5
555.EsTRUTH Plus NORTH-NAGOYA,35.193044,136.924533,0
560.名鉄協商パーキング六番町第６,35.126014,136.888496,5
557.名古屋市西区役所,35.188897,136.890234,0
447.久屋大通パーク南,35.171972,136.908727,5
299.NTT笹島ビル,35.175875,136.883808,9
029.SAKUMACHI商店街（尼ケ坂駅）,35.187878,136.918944,0
435.名鉄協商パーキング東別院北第1,35.152638,136.902834,0
570.長久手市杁ケ池体育館　入口前,35.167769,137.033855,3
051.パナソニック名古屋中村ビル,35.164356,136.888243,7
140.ディアレイシャス浅間町,35.178861,136.890162,2
152.名鉄協商パーキング池内町,35.139722,136.91022,4
166.マーケットスクエアささしま,35.163163,136.884587,5
287.ファミリーマート熱田金山南店,35.142359,136.898923,0
510.名鉄協商パーキング六番町駅前,35.123666,136.887789,2
532.小本駅前,35.148874,136.860509,4
392.アーバンラフレ虹ヶ丘西,35.158792,136.98965,2
364.名鉄協商パーキング亀島2丁目第10(2),35.17366,136.873075,2
539.名鉄協商パーキング上高畑1丁目第4,35.145567,136.856965,1
367.名鉄協商パーキング虹が丘公園,35.15912,136.992506,0
497.名古屋中郵便局,35.161921,136.90275,2
101.ファミリーマート吹上駅北店,35.159844,136.935104,0
365.葵3丁目,35.172935,136.931712,3
498.名古屋東郵便局,35.183669,136.922129,1
484.名鉄協商パーキング清水口第３,35.183092,136.914367,1
474.メットライフ名駅南ビル,35.165717,136.888377,0
117.ファミリーマート芳野一丁目店,35.184704,136.919934,0
476.メイクスデザイン鶴舞,35.160279,136.916251,0
519.名鉄協商パーキング亀島２丁目第１１,35.175387,136.875702,3
361.ソーネおおぞね,35.198931,136.936165,1
143.重工大須病院(南側),35.155161,136.894957,0
566.名鉄協商パーキング小幡駅南第3,35.199614,136.973725,1
341.東海クラリオン,35.150749,136.896739,0
433.萱場住宅,35.181303,136.946006,2
326.名鉄協商パーキング名駅4丁目第8(2),35.169418,136.888497,2
458.KEIZ中川運河店,35.129276,136.881149,8
374.ファミリーマート児玉西店,35.195441,136.886913,1
157.名鉄協商パーキング　泉1丁目第6,35.175432,136.911707,1
146.名鉄協商パーキング大曽根第11,35.192953,136.938285,6
145.リシュドール大須,35.161018,136.895786,4
524.パルティーレ神宮南,35.116575,136.901124,4
062.NTT布池ビル,35.175612,136.921726,1
430.重工大須病院(北側),35.155749,136.894389,0
018.名鉄協商パーキング錦通桑名町第２,35.169221,136.898439,5
082.名鉄協商パーキング新栄第16,35.168031,136.922982,0
546.名鉄協商パーキング五軒家町第3,35.142508,136.949,1
057.名鉄協商パーキング正木第5,35.146715,136.898239,2
306.名鉄協商パーキング山花町,35.151743,136.950508,4
507.ヴィラコスモス大曽根,35.190552,136.935541,0
311.キャッスルタウン記念橋(3),35.152361,136.908101,0
520.ドコモショップ藤が丘西店,35.181179,137.00672,5
410.名鉄協商パーキング名駅北第3,35.174222,136.883019,2
466.グラシア上飯田,35.204584,136.930746,4
188.スクエア名駅南,35.16006,136.89076,7
477.愛知学院大学歯学部附属病院,35.166342,136.957039,3
179.ファミリーマート鶴舞店,35.15679,136.917269,2
015.名鉄協商パーキングなごのキャンパス,35.175755,136.886958,1
083.名鉄協商パーキング大曽根第13,35.193483,136.937774,2
545.EDGE名駅,35.167704,136.888776,2
266.ファミリーマート本陣通店,35.177353,136.866961,6
271.ファミリーマート浅間町駅前店,35.184028,136.890601,0
249.カレント今池,35.169565,136.941427,0
473.エニシオ名駅,35.169326,136.885562,2
303.NTT千種第二ビル,35.164907,136.935845,0
196.丸山町第4駐車場,35.162018,136.947779,1
332.ファミリーマート瑞穂本願寺二丁目店,35.129078,136.931915,3
387.UR尾上,35.20103,136.924593,9
336.ファミリーマート日比津グランド前店,35.184501,136.859609,1
286.錦2丁目ポート錦通第１,35.169598,136.900399,4
340.愛知学院大学 名城公園キャンパス(南側),35.186653,136.904983,7
379.浄心南自転車駐車場,35.191204,136.890907,2
164.オアシス21前ステーション,35.17094,136.909036,10
001. 名鉄名古屋駅（１）,35.169221,136.883608,9
415.金シャチ横丁 宗春ゾーン,35.182892,136.904976,2
574.メイクス熱田大宝,35.129703,136.89194,0
064.NTT上前津ビル,35.159334,136.907351,4
487.花の木1丁目,35.186118,136.887934,2
255.ファミリーマート那古野二丁目店,35.176725,136.889587,0
369.名鉄協商パーキング児玉3丁目第2,35.193572,136.883305,0
573.名鉄協商パーキング瓢箪山駅前,35.197691,136.965428,4
505.名鉄協商パーキング新瑞橋第8,35.121637,136.936265,8
252.ファミリーマート名西枇杷島店,35.196775,136.874928,1
136.ファミリーマート明和高校前店,35.183047,136.909761,1
455.COLLECT MARK 金山（2）,35.142251,136.903377,0
055.名鉄協商パーキング名駅4丁目第１１,35.170213,136.885764,3
205.名鉄協商パーキング檀渓通第２,35.145141,136.945896,2
302.NTT矢田ビル,35.184746,136.942009,5
118.ライブコート泉,35.177033,136.908939,2
391.アーバンラフレ虹ヶ丘南,35.156782,136.991964,1
226.ファミリーマート名西名塚町店,35.205701,136.886858,1
225.ファミリーマート太閤通八丁目店,35.167983,136.857972,1
165.名古屋ビルディング桜館,35.17128,136.887659,3
509.弥富町緑ケ岡,35.134171,136.956919,3
215.JR千種駅（地上改札）,35.170058,136.93067,2
059.愛知大学　名古屋キャンパス,35.161967,136.885381,14
046.RT白川ビル,35.166934,136.901612,9
380.浅間町北自転車駐車場,35.184994,136.890513,0
515.メイクス上前津Ⅳ,35.154135,136.900738,0
295.名鉄協商パーキング笹島南,35.166868,136.884685,3
135.ファミリーマート名駅柳橋店,35.169544,136.889503,7
446.久屋大通パーク北,35.17786,136.907505,7
431.若水住宅,35.177069,136.946755,0
045.名鉄協商パーキング池田公園PB,35.166924,136.913092,1
123.ファミリーマート中村大宮町店,35.166588,136.86575,2
040.名鉄協商パーキング　那古野2丁目,35.174671,136.889152,0
177.名鉄協商パーキング数寄屋町,35.189531,136.89655,0
253.ファミリーマート中村向島店,35.164378,136.85031,2
488.久屋大通庭園フラリエ,35.161633,136.908494,7
273.プレイズシード大曽根,35.192678,136.941668,4
298.NTT新道ビル,35.18021,136.886248,0
469.名鉄協商パーキング川名山町,35.146854,136.959768,5
357.ランドハウス八事,35.141009,136.958512,2
494.名鉄協商パーキング覚王山,35.166345,136.952695,5
495.名鉄協商パーキング東山公園前第3,35.158799,136.973335,3
554.名鉄協商パーキングよもぎ台2丁目,35.177895,136.991919,2
305.猪村ビルディング,35.196637,136.890236,0
168.中日新聞社北館,35.180024,136.896764,15
331.ドコモショップ名東平和が丘店,35.175242,136.985238,0
158.ファミリーマート名古屋新栄二丁目店,35.16969,136.924072,2
480.STプラザ御器所,35.149428,136.936438,9
373.大宮町1丁目,35.16563,136.865704,2
309.サン・栄三丁目ビル,35.163573,136.902416,1
107.ファミリーマート金城一丁目店,35.192955,136.903008,2
489.コインランドリー乾ちゃん,35.18931,136.934705,0
106.ファミリーマート代官町東店,35.17615,136.924683,0
297.ファミリーマート中川舟戸店,35.154019,136.879462,0
462.名鉄協商パーキングよもぎ台３丁目,35.173852,136.99077,2
195.ＡＢホテル名古屋栄,35.165757,136.911449,2
342.カメリヤ千種,35.168455,136.926675,1
288.名鉄協商パーキング愛 地球博記念公園西,35.173636,137.079368,1
105.ファミリーマート葵一丁目店,35.170533,136.921465,3
223.ファミリーマート上名古屋四丁目店,35.196993,136.896969,0
159.ファミリーマート千種今池南店,35.162506,136.93874,0
578.城北町2丁目,35.198052,136.895843,0
012.名鉄協商パーキング名駅4丁目第7,35.170969,136.888056,8
346.プレイランドキャッスル熱田店,35.135139,136.91177,7
067.中京テレビ,35.160983,136.881957,1
116.ファミリーマート菊井一丁目店,35.181023,136.885714,0
080.名鉄協商パーキング犬山駅前,35.380742,136.944674,6
281.名鉄協商パーキング錦3丁目第4,35.170725,136.905114,9
048.ＣＢＣハウジング名駅北,35.180973,136.883625,1
471.NHK名古屋放送センタービル,35.171975,136.911922,4
317.名鉄協商パーキング新栄1丁目第8,35.168187,136.91785,0
333.ファミリーマート中村東宿町店,35.175348,136.849327,0
559.MLJ丸の内ビル,35.174316,136.902461,9
468.名鉄協商パーキング葵３丁目第９,35.17035,136.927398,0
549.メイクスWアート上前津Ⅴ,35.153337,136.899677,0
318.ファミリーマート中村森田町店,35.179264,136.86332,0
439.栄,35.167823,136.908088,10
442.大須,35.161066,136.903843,4
185.名鉄協商パーキング本陣駅前第5,35.176504,136.864925,6
444.伏見,35.168002,136.897758,6
525.熱田郵便局,35.121639,136.911156,1
449.上前津,35.158753,136.905883,5
503.TOHO Learning House,35.175486,136.995986,2
424.メイクス城西レジデンス,35.183278,136.892855,2
427.名鉄協商パーキング末盛通第2,35.165468,136.957535,4
198.イオンモール長久手,35.172204,137.049516,6
151.ファミリーマート古渡町店,35.148852,136.898761,1
514.コインランドリー潔,35.192868,136.932176,2
320.名鉄協商パーキング名駅4丁目第6,35.171145,136.88606,2
354.車道駅ステーション（北側）,35.173646,136.929249,2
094.ファミリーマート栄生二丁目店,35.18677,136.871088,3
042.広小路本町ビルディング,35.168324,136.902386,24
144.サンモール浅間,35.181815,136.887906,0
203.メゾン名北,35.198114,136.926809,3
236.グレース金山,35.143493,136.910519,6
244.ファミリーマート中村岩上町店,35.163149,136.837712,4
393.アーバンラフレ虹ヶ丘中,35.159053,136.997246,5
355.車道駅ステーション（南側）,35.173364,136.92897,1
071.名鉄協商パーキング前津通,35.154116,136.906092,0
383.白鳥パークハイツ神宮西,35.128539,136.90227,3
343.ファミリーマート中村並木店,35.149482,136.850179,2
428.日比野駅高架下ステーション,35.132194,136.892812,7
576.名鉄協商パーキング今池３丁目第３,35.166078,136.933878,0
350.名鉄協商パーキング川名本町3丁目,35.152998,136.94123,1
583.名鉄協商パーキング上前津２丁目,35.156133,136.906367,1
438.名鉄協商パーキング柳原1丁目第3,35.18785,136.908403,2
371.名鉄協商パーキング代官町第９,35.177091,136.923907,0
499.千種郵便局,35.169085,136.937625,1
257.桜通豊田ビル,35.171395,136.886881,3
228.ファミリーマート名西康生通店,35.193283,136.879486,2
241.FKレジデンスT・H,35.195427,136.898421,0
231.東別院自転車駐車場（北側）,35.151382,136.905397,0
478.名鉄協商パーキング杁中第３,35.14446,136.957561,8
386.UR中丸,35.205436,136.900767,5
036.名鉄協商パーキング浅間町駅前,35.183951,136.890711,4
139.名鉄協商パーキング筒井2丁目第3,35.176899,136.927635,4
378.ファミリーマート瑞穂田光町店,35.12409,136.923451,5
313.名鉄協商パーキング檀溪通,35.143228,136.945159,1
437.クレストヒルズ東山,35.163631,136.973439,8
111.名鉄協商パーキング神宮前駅西PB,35.124198,136.912221,0
020.名鉄名古屋駅（４）（５）,35.168452,136.884807,8
572.名鉄協商パーキング五軒家町,35.145103,136.947912,2
187.名鉄協商パーキング鳥居通,35.175061,136.86457,6
008. 名鉄協商パーキングすいほう園,35.168328,136.91059,10
459.名鉄協商パーキング東枇杷島駅第2,35.189746,136.870326,5
222.ファミリーマート鳥見町二丁目店,35.202071,136.887939,0
486.名鉄協商パーキング村雲町,35.145473,136.919281,0
513.FK九重町駐車場,35.157247,136.877004,0
245.名古屋市中小企業振興会館（吹上ホール）,35.159234,136.92996,0
359.サン・名駅太閤ビル,35.167946,136.875543,0
102.ファミリーマート中村上ノ宮町店,35.176996,136.863369,6
260.ホテル メルパルク名古屋,35.171221,136.929078,0
156.イオンモールナゴヤドーム前3,35.187779,136.942942,3
154.イオンモールナゴヤドーム前１,35.186386,136.944916,6
126.ファミリーマート大須一丁目店,35.159041,136.898093,5
414.金シャチ横丁 義直ゾーン,35.182957,136.898313,3
460.名鉄協商パーキング堀田駅前東第3,35.119493,136.923382,2
296.ファミリーマート高辻店,35.140993,136.918685,4
103.ファミリーマート則武本通店,35.170187,136.872669,0
073.トヨタレンタリース愛知 柳橋店,35.167385,136.889546,5
186.名鉄協商パーキング浅間町駅北第２,35.18538,136.890357,0
099.ファミリーマート熱田大宝店,35.129268,136.895175,7
227.ファミリーマート江向町三丁目店,35.206913,136.895902,4
219.ファミリーマートナゴヤドーム前店,35.190045,136.946322,4
334.ファミリーマート名東藤が丘店,35.181646,137.018561,1
078.庄内ハウス,35.205894,136.891323,6
534.名鉄協商パーキング本郷駅前,35.175421,137.012216,1
197.長久手温泉ござらっせ,35.184524,137.060998,1
330.名鉄協商パーキング広小路通東新町,35.169191,136.913554,11
384.アーバンラフレ鶴舞公園,35.15377,136.91263,2
178.名鉄協商パーキング御器所北第９,35.152796,136.936805,2
467.ファミリーマート瑞穂牛巻町店,35.127187,136.919376,1
308.Pit Inn OZONE,35.190801,136.936485,1
194.イオンモール熱田（南側）,35.136126,136.908619,0
002. 名鉄名古屋駅（２）（３）,35.167982,136.884035,9
381.浅間町南自転車駐車場,35.182828,136.890266,0
251.Grandtic Roxa,35.155075,136.92773,3
049.名鉄協商パーキング東片端北第2,35.179723,136.913545,0
301.NTT瑞穂通ビル,35.133835,136.934014,6
408.JR熱田駅,35.129997,136.909941,0
425.メイクス矢場町,35.164596,136.916773,0
061.ＮＴＴ則武ビル,35.172234,136.87632,0
324.ファミリーマート藤が丘南店,35.179907,137.019504,5
292.名鉄協商パーキング藤が丘駅西第２,35.184002,137.018456,1
475.メイクス今池02,35.168601,136.942001,0
027.ミッドランドスクエア,35.169722,136.885512,2
530.ダイアパレス東白壁,35.187378,136.92431,0
321.プレイズシード御器所イースト,35.149429,136.942303,3
250.カレント茶屋ヶ坂,35.183317,136.957215,3
325.ドコモショップ桜山店,35.142923,136.933713,4
217.デュオフラッツ栄,35.162336,136.913164,1
153.CSP NAGOYA,35.150874,136.910275,0
232.東別院自転車駐車場（南側）,35.150542,136.904995,0
461.名鉄協商パーキング又穂コイン,35.20533,136.897643,3
300.NTT中村ビル,35.166873,136.863019,2
200.藤が丘effe,35.182519,137.021782,6
207.田代道場駐車場,35.167833,136.944447,3
192.そよら上飯田,35.200853,136.929303,7
127.名鉄協商パーキング上更,35.187378,136.876628,3
243.ファミリーマート中村公園北口店,35.177531,136.855691,3
491.メイクス今池プライム,35.165978,136.940315,1
031.市役所前,35.181742,136.904723,1
472.MIYUKI MALL,35.198472,136.890801,0
409.JR八田駅(南口),35.148831,136.852428,3
289.名鉄協商パーキング池下東,35.166353,136.947885,3
076.ロイヤルパークスＥＲささしま,35.160686,136.881182,0
370.ファミリーマート名城公園北店,35.191302,136.904091,3
556.名鉄協商パーキング大井町第８,35.15127,136.906592,1
275.ファミリーマート茶屋が坂駅前店,35.184831,136.962016,2
493.石田歯科医院前,35.192827,136.932325,2
085.名鉄協商パーキング広小路車道第2,35.169119,136.926382,0
086.CASSIA錦本町通,35.1718,136.901728,4
536.メイクスデザイン上前津,35.152599,136.90901,0
419.名鉄協商パーキング熱田神宮西,35.125769,136.906777,3
084.名鉄協商パーキング菊里町,35.165812,136.925795,1
421.国際センター北自転車駐車場,35.172442,136.889796,0
280.名古屋インターシティ,35.169448,136.896735,7
180.サンモール新道,35.180712,136.886871,0
348.丸の内2丁目,35.174169,136.901258,3
347.名鉄協商パーキング東桜第12,35.171862,136.913471,0
056.吹上2丁目,35.159606,136.927436,2
397.名鉄協商パーキング名駅1丁目第3(1),35.17392,136.88072,7
155.イオンモールナゴヤドーム前２,35.18829,136.944965,2
561.名鉄協商パーキング千年1丁目,35.117631,136.900957,4
541.名鉄協商パーキング金山３丁目,35.146244,136.907136,0
242.ファミリーマート名古屋大幸四丁目店,35.190362,136.953239,2
279.名鉄協商パーキング楽園町,35.14842,136.959076,2
122.ファミリーマート松原二丁目店,35.154944,136.898274,1
044.Ｒ＆Ｂホテル名古屋新幹線口,35.171501,136.87769,2
270.キャッスルタウン大曽根,35.187952,136.934972,1
175.名鉄協商パーキング三の丸１丁目,35.181687,136.894852,0
581.栄生駅南ステーション,35.18172,136.872838,0
377.桜通丸の内ステーション,35.17301,136.895461,7
485.ファミリーマート昭和滝川町店,35.140642,136.959112,1
032.名古屋城正門前,35.182838,136.897124,1
349.ファミリーマート栄五丁目店,35.162775,136.911333,2
535.MKD名古屋ビル,35.162349,136.913942,0
411.ウッディ調剤薬局,35.147757,136.850329,3
547.メイクスアート太閤通,35.169277,136.867918,1
405.名鉄協商パーキング御器所3丁目第3,35.147595,136.923945,0
202.グレイス覚王山,35.166262,136.955524,7
434.名鉄協商パーキング藤里町,35.189882,137.012955,1
274.ファミリーマート千種本山店,35.163833,136.965119,0
148.丸の内Ｏｎｅビルディング,35.174062,136.896308,12
569.長久手市文化の家　楽屋口駐輪場,35.183084,137.038907,2
113イオンモールNagoyaNoritakeGarden前,35.181068,136.879719,4
213.名鉄協商パーキング鶴舞第2,35.157772,136.918523,1
172.名鉄協商パーキング笹島第７,35.167446,136.88693,2
558.マ・メゾン,35.198858,136.950612,3
552.名鉄協商パーキング千種公園北,35.179121,136.942183,0
204.名鉄協商パーキング牛巻,35.128196,136.920277,2
183.サンライズ千種,35.159086,136.935585,0
577.名鉄協商パーキング藤が丘駅南第４,35.181307,137.020811,2
310.キャッスルタウン記念橋(2),35.152117,136.908672,0
463.名鉄協商パーキング児玉2丁目第2,35.192908,136.885557,0
141.ファミリーマート名古屋新栄店,35.163477,136.922984,0
376.名鉄協商パーキング金城町4丁目第2,35.210743,136.905691,2
087.CASSIA車道,35.174533,136.925483,1
293.名鉄協商パーキング上社第３,35.174597,137.00736,7
358.TENAS今池,35.168615,136.934212,3
206.名鉄協商パーキング香呑町,35.202256,136.897586,1
247.カーサK.R.C,35.172676,136.855834,3
315.LUORE吹上,35.162397,136.936756,1
339.フォルクランド那古野,35.17541,136.888024,1
035.名鉄協商パーキング金山第13,35.14705,136.902268,1
065.NTT広小路ビル,35.166407,136.899142,7
063.NTT栄ビル（１）（２）,35.1694,136.912338,6
290.B'pac本陣,35.18143,136.866315,0
565.ぽかぽか温泉新守山乃湯,35.202974,136.949985,2
396.ファミリーマート千種今池一丁目店,35.168648,136.933086,3
022.名鉄協商パーキング錦1丁目第2,35.170248,136.892671,1
100.ファミリーマート熱田波寄町店,35.143028,136.905126,0
457.名鉄協商パーキング滝子第５,35.140763,136.924932,3
352.千種一丁目バイクステーション,35.163105,136.929409,0
009. 名鉄協商パーキング丸の内PB,35.176089,136.90128,1
125.ファミリーマート名古屋浅間町店,35.18432,136.888748,1
548.ソルメイクス浄心天神山,35.191861,136.887477,2
490.押切1丁目,35.185507,136.885887,0
426.メイクス鶴舞Ⅱ,35.154128,136.912013,0
479.名鉄協商パーキング本山第８,35.165602,136.963379,0
041.名古屋第一ビル（1）（2）（3）（4）,35.168616,136.896142,5
110.ＲＴセンターステージビル,35.168196,136.919224,0
240.名鉄協商パーキング錦2丁目第9,35.171112,136.899652,11
579.名鉄協商パーキング下前津第3,35.154024,136.904978,1
131.ファミリーマートたちばな店,35.153739,136.908691,1
234.名鉄協商パーキング村雲町第2,35.14582,136.918571,1
174.ファミリーマート金山正木橋店,35.146061,136.897211,4
263.名鉄協商パーキング広路通4丁目,35.149671,136.942052,11
017.名鉄協商パーキング牛島第８,35.176333,136.880489,2
399.グランベール安田通(1),35.156892,136.940616,3
537.メイクス名駅南Ⅱ,35.15947,136.889018,0
531.TENAS亀島,35.178311,136.874402,0
363.名鉄協商パーキング亀島2丁目第10(1),35.173708,136.873437,3
006. 名鉄協商  コンピュータービル,35.165932,136.885827,4
551.名鉄協商パーキング新守山駅西第3,35.208134,136.948448,6
385.UR豊成,35.156861,136.876945,0
028.名鉄協商パーキング泉1丁目第12,35.177376,136.911392,1
328.サン・タウン名駅椿本館,35.168753,136.878504,0
506.名鉄協商パーキング中川松葉町４丁目,35.149775,136.862957,2
218.名鉄協商パーキング雁道第2,35.134849,136.919524,1
440.ナディアパーク,35.165259,136.905987,2
237.ファミリーマート大幸一丁目店,35.192465,136.946655,8
038.名鉄協商パーキング金山橋,35.141893,136.903433,0
508.名鉄協商パーキング名駅南第２５,35.16695,136.887752,1
544.エミール泉,35.174957,136.913661,0
137.自由自在ＯＳＵ,35.160259,136.893584,1
452.鶴舞公園西ステーション,35.154374,136.916765,1
542.sereza錦,35.172529,136.903445,5
327.名鉄協商パーキング名駅4丁目第8(3),35.169619,136.888505,2
398.名鉄協商パーキング名駅1丁目第3(2),35.173914,136.880857,7
212.名鉄協商パーキング白壁第8,35.185923,136.918818,0
563.三十三銀行 上前津支店,35.158668,136.906149,0
436.MO-YA-CO UNIQUE PRODUCT!,35.197317,136.912909,1
095.ファミリーマート千早店,35.160418,136.918942,0
351.CASSIA旭丘,35.184894,136.938956,5
314.ジャストインプレミアム名古屋駅,35.17295,136.893143,1
282.星が丘テラスEAST,35.160191,136.985787,9
512.名鉄協商パーキング六番町駅前第2,35.124044,136.888158,4
335.ファミリーマート星が丘元町店,35.16238,136.986186,1
443.科学館,35.165242,136.898599,13
412.名鉄協商パーキング小坂町,35.155405,136.935701,1
229.ファミリーマート千種仲田二丁目店,35.171781,136.942576,3
030.SAKUMACHI商店街（清水駅）,35.187291,136.913312,0
483.BLG白鳥ビル,35.122573,136.906726,0
400.グランベール安田通(2),35.156832,136.940575,4
284.錦2丁目ポート長島町通第１,35.172478,136.899476,6
193.イオンモール熱田（北側）,35.137905,136.908242,1
259.名鉄協商パーキング尾頭橋公園第4,35.145629,136.890122,0
568.長久手市役所　西庁舎入口前,35.184048,137.048139,1
066.名鉄協商パーキング伏見通錦,35.171138,136.896921,8
052.名鉄病院,35.184749,136.872807,0
