[
  {
    "id": "005137d4cb790f7ed167521b8972b43f",
    "name": "208.名鉄協商パーキング太閤第12",
    "latitude": 35.166589,
    "longitude": 136.878612,
    "timestamp": "2025-05-16T04:22:47.946143+00:00Z",
    "free_bikes": 1,
    "empty_slots": 2,
    "extra": {
      "uid": "00001067",
      "renting": true,
      "returning": true,
      "last_updated": 1747369328,
      "slots": 3,
      "virtual": false
    }
  },
  {
    "id": "008ef014cd3d0b762df157265597e4ec",
    "name": "058.金山駅南駅前広場ステーション",
    "latitude": 35.142331,
    "longitude": 136.900594,
    "timestamp": "2025-05-16T04:22:48.823086+00:00Z",
    "free_bikes": 1,
    "empty_slots": 5,
    "extra": {
      "uid": "00087053",
      "renting": true,
      "returning": true,
      "last_updated": 1747369328,
      "slots": 6,
      "virtual": false
    }
  },
  {
    "id": "00eb5403ec47eec50242d15a80eefb42",
    "name": "429.TENAS泉",
    "latitude": 35.175191,
    "longitude": 136.915203,
    "timestamp": "2025-05-16T04:22:48.297291+00:00Z",
    "free_bikes": 0,
    "empty_slots": 6,
    "extra": {
      "uid": "00002764",
      "renting": true,
      "returning": true,
      "last_updated": 1747369328,
      "slots": 6,
      "virtual": false
    }
  },
  {
    "id": "01c2abfee1ba40db98ab39e46ea96d1d",
    "name": "104.ファミリーマート葵店",
    "latitude": 35.170937,
    "longitude": 136.920249,
    "timestamp": "2025-05-16T04:22:47.819637+00:00Z",
    "free_bikes": 0,
    "empty_slots": 3,
    "extra": {
      "uid": "00000359",
      "renting": true,
      "returning": true,
      "last_updated": 1747369328,
      "slots": 3,
      "virtual": false
    }
  },
  {
    "id": "0206e93c542eae9db4460a61ff6d4c4a",
    "name": "190.名鉄協商パーキング熱田神宮北",
    "latitude": 35.128727,
    "longitude": 136.908447,
    "timestamp": "2025-05-16T04:22:47.931694+00:00Z",
    "free_bikes": 1,
    "empty_slots": 2,
    "extra": {
      "uid": "00000891",
      "renting": true,
      "returning": true,
      "last_updated": 1747369328,
      "slots": 3,
      "virtual": false
    }
  },
  {
    "id": "0264eae4a3488915bb3dc8c044c917ec",
    "name": "423.ネオ笹島ビル",
    "latitude": 35.166954,
    "longitude": 136.887255,
    "timestamp": "2025-05-16T04:22:48.301215+00:00Z",
    "free_bikes": 0,
    "empty_slots": 4,
    "extra": {
      "uid": "00002766",
      "renting": true,
      "returning": true,
      "last_updated": 1747369328,
      "slots": 4,
      "virtual": false
    }
  },
  {
    "id": "02b5a2e305cd932f888c9583b1c3ab23",
    "name": "079.エディオン名古屋本店",
    "latitude": 35.163562,
    "longitude": 136.890869,
    "timestamp": "2025-05-16T04:22:47.781306+00:00Z",
    "free_bikes": 5,
    "empty_slots": 0,
    "extra": {
      "uid": "00000266",
      "renting": true,
      "returning": true,
      "last_updated": 1747369328,
      "slots": 5,
      "virtual": false
    }
  },
  {
    "id": "02e63c6411995ed8147877ac2f49757b",
    "name": "389.アーバニア志賀公園",
    "latitude": 35.203918,
    "longitude": 136.906647,
    "timestamp": "2025-05-16T04:22:48.212460+00:00Z",
    "free_bikes": 3,
    "empty_slots": 4,
    "extra": {
      "uid": "00002221",
      "renting": true,
      "returning": true,
      "last_updated": 1747369328,
      "slots": 7,
      "virtual": false
    }
  },
  {
    "id": "03507966e5bbb463804b26049fa5a286",
    "name": "254.ファミリーマート都通二丁目店",
    "latitude": 35.174831,
    "longitude": 136.936866,
    "timestamp": "2025-05-16T04:22:47.995869+00:00Z",
    "free_bikes": 0,
    "empty_slots": 3,
    "extra": {
      "uid": "00001258",
      "renting": true,
      "returning": true,
      "last_updated": 1747369328,
      "slots": 3,
      "virtual": false
    }
  },
  {
    "id": "035161bb1429a4b5eda4e3692cfce1fc",
    "name": "511.千代田2丁目",
    "latitude": 35.158616,
    "longitude": 136.9131,
    "timestamp": "2025-05-16T04:22:48.449744+00:00Z",
    "free_bikes": 6,
    "empty_slots": 0,
    "extra": {
      "uid": "00003390",
      "renting": true,
      "returning": true,
      "last_updated": 1747369328,
      "slots": 6,
      "virtual": false
    }
  },
  {
    "id": "0369c3cf62569d87e52030e6f2d4af2a",
    "name": "418.名鉄協商パーキング陽明町1丁目",
    "latitude": 35.137433,
    "longitude": 136.946638,
    "timestamp": "2025-05-16T04:22:48.279495+00:00Z",
    "free_bikes": 4,
    "empty_slots": 0,
    "extra": {
      "uid": "00002630",
      "renting": true,
      "returning": true,
      "last_updated": 1747369328,
      "slots": 4,
      "virtual": false
    }
  },
  {
    "id": "03db04c31a754dfb10345e90b2924b1f",
    "name": "307.名鉄協商パーキング吹上公園",
    "latitude": 35.15898,
    "longitude": 136.932918,
    "timestamp": "2025-05-16T04:22:48.070308+00:00Z",
    "free_bikes": 0,
    "empty_slots": 7,
    "extra": {
      "uid": "00001638",
      "renting": true,
      "returning": true,
      "last_updated": 1747369328,
      "slots": 7,
      "virtual": false
    }
  },
  {
    "id": "03f217138f231f10307610205b629674",
    "name": "162.名鉄協商パーキング新栄第２",
    "latitude": 35.16552,
    "longitude": 136.917535,
    "timestamp": "2025-05-16T04:22:47.880938+00:00Z",
    "free_bikes": 0,
    "empty_slots": 2,
    "extra": {
      "uid": "00000656",
      "renting": true,
      "returning": true,
      "last_updated": 1747369328,
      "slots": 2,
      "virtual": false
    }
  },
  {
    "id": "03ffcf33292d37cb7f34debe4e300011",
    "name": "043.グランルージュ栄2",
    "latitude": 35.16311,
    "longitude": 136.913056,
    "timestamp": "2025-05-16T04:22:48.809429+00:00Z",
    "free_bikes": 0,
    "empty_slots": 7,
    "extra": {
      "uid": "00087038",
      "renting": true,
      "returning": true,
      "last_updated": 1747369328,
      "slots": 7,
      "virtual": false
    }
  },
  {
    "id": "04002c560f72f40b4e5d0c465cd1a958",
    "name": "526.瑞穂郵便局",
    "latitude": 35.125144,
    "longitude": 136.934112,
    "timestamp": "2025-05-16T04:22:48.472642+00:00Z",
    "free_bikes": 2,
    "empty_slots": 1,
    "extra": {
      "uid": "00003485",
      "renting": true,
      "returning": true,
      "last_updated": 1747369328,
      "slots": 3,
      "virtual": false
    }
  },
  {
    "id": "0435176f3c53172bf0ce8f576b3cef31",
    "name": "501.昭和郵便局",
    "latitude": 35.14056,
    "longitude": 136.933509,
    "timestamp": "2025-05-16T04:22:48.444409+00:00Z",
    "free_bikes": 3,
    "empty_slots": 3,
    "extra": {
      "uid": "00003384",
      "renting": true,
      "returning": true,
      "last_updated": 1747369328,
      "slots": 6,
      "virtual": false
    }
  },
  {
    "id": "058f13e8722f6458c78eea9d404b77ab",
    "name": "540.名鉄協商パーキング大曽根駅前",
    "latitude": 35.190288,
    "longitude": 136.936239,
    "timestamp": "2025-05-16T04:22:48.488697+00:00Z",
    "free_bikes": 0,
    "empty_slots": 5,
    "extra": {
      "uid": "00003590",
      "renting": true,
      "returning": true,
      "last_updated": 1747369328,
      "slots": 5,
      "virtual": false
    }
  },
  {
    "id": "05fd1ca9fa0280f525414f0414600a8d",
    "name": "230. CreCer（クレセール）",
    "latitude": 35.148896,
    "longitude": 136.884327,
    "timestamp": "2025-05-16T04:22:47.993559+00:00Z",
    "free_bikes": 1,
    "empty_slots": 4,
    "extra": {
      "uid": "00001226",
      "renting": true,
      "returning": true,
      "last_updated": 1747369328,
      "slots": 5,
      "virtual": false
    }
  },
  {
    "id": "06a2a9a94ab147b9f1d4bcef9f67468c",
    "name": "465.ファミリーマート昭和鶴舞二丁目店",
    "latitude": 35.152157,
    "longitude": 136.916643,
    "timestamp": "2025-05-16T04:22:48.368092+00:00Z",
    "free_bikes": 3,
    "empty_slots": 0,
    "extra": {
      "uid": "00002930",
      "renting": true,
      "returning": true,
      "last_updated": 1747369328,
      "slots": 3,
      "virtual": false
    }
  },
  {
    "id": "07bdf7b53827ce859f8757da0b8aea4c",
    "name": "522.名鉄協商パーキング清住町第３",
    "latitude": 35.162501,
    "longitude": 136.969073,
    "timestamp": "2025-05-16T04:22:48.469540+00:00Z",
    "free_bikes": 1,
    "empty_slots": 3,
    "extra": {
      "uid": "00003474",
      "renting": true,
      "returning": true,
      "last_updated": 1747369328,
      "slots": 4,
      "virtual": false
    }
  },
  {
    "id": "08d488082494b2c5674a897db7a52c95",
    "name": "238.ファミリーマート今池南店",
    "latitude": 35.164412,
    "longitude": 136.936575,
    "timestamp": "2025-05-16T04:22:47.986795+00:00Z",
    "free_bikes": 2,
    "empty_slots": 1,
    "extra": {
      "uid": "00001204",
      "renting": true,
      "returning": true,
      "last_updated": 1747369328,
      "slots": 3,
      "virtual": false
    }
  },
  {
    "id": "08f6f70e1a376288973af155c56651e4",
    "name": "504.メイクス新栄",
    "latitude": 35.164868,
    "longitude": 136.91851,
    "timestamp": "2025-05-16T04:22:48.444730+00:00Z",
    "free_bikes": 0,
    "empty_slots": 3,
    "extra": {
      "uid": "00003385",
      "renting": true,
      "returning": true,
      "last_updated": 1747369328,
      "slots": 3,
      "virtual": false
    }
  },
  {
    "id": "096a7f6eefc518b5860face04d8559d2",
    "name": "026.名鉄協商パーキング納屋橋",
    "latitude": 35.167399,
    "longitude": 136.891131,
    "timestamp": "2025-05-16T04:22:48.804947+00:00Z",
    "free_bikes": 5,
    "empty_slots": 0,
    "extra": {
      "uid": "00087022",
      "renting": true,
      "returning": true,
      "last_updated": 1747369328,
      "slots": 5,
      "virtual": false
    }
  },
  {
    "id": "09c01232abbc62c24dbd34ee430622ad",
    "name": "464.第2名古屋三交ビル",
    "latitude": 35.173078,
    "longitude": 136.88817,
    "timestamp": "2025-05-16T04:22:48.370659+00:00Z",
    "free_bikes": 6,
    "empty_slots": 0,
    "extra": {
      "uid": "00002954",
      "renting": true,
      "returning": true,
      "last_updated": 1747369328,
      "slots": 6,
      "virtual": false
    }
  },
  {
    "id": "0a6f19bbb66f14e2527514d34027ee35",
    "name": "109.ファミリーマート岩塚本通五丁目店",
    "latitude": 35.157846,
    "longitude": 136.842945,
    "timestamp": "2025-05-16T04:22:47.822613+00:00Z",
    "free_bikes": 5,
    "empty_slots": 0,
    "extra": {
      "uid": "00000364",
      "renting": true,
      "returning": true,
      "last_updated": 1747369328,
      "slots": 5,
      "virtual": false
    }
  },
  {
    "id": "0c1bab764173e9ff9c56cee59fb58e0b",
    "name": "362.プレイランドキャッスル尾頭橋店",
    "latitude": 35.144376,
    "longitude": 136.893348,
    "timestamp": "2025-05-16T04:22:48.159649+00:00Z",
    "free_bikes": 0,
    "empty_slots": 4,
    "extra": {
      "uid": "00001948",
      "renting": true,
      "returning": true,
      "last_updated": 1747369328,
      "slots": 4,
      "virtual": false
    }
  },
  {
    "id": "0c5ce7fc963501255c70377cb4dae94d",
    "name": "220.ファミリーマート千種天満通店",
    "latitude": 35.179525,
    "longitude": 136.955591,
    "timestamp": "2025-05-16T04:22:47.952701+00:00Z",
    "free_bikes": 0,
    "empty_slots": 6,
    "extra": {
      "uid": "00001117",
      "renting": true,
      "returning": true,
      "last_updated": 1747369328,
      "slots": 6,
      "virtual": false
    }
  },
  {
    "id": "0cc3af613dc5f3ed8e66479f7beee8d8",
    "name": "294.名鉄協商パーキング亀の井3丁目",
    "latitude": 35.163018,
    "longitude": 137.002282,
    "timestamp": "2025-05-16T04:22:48.059230+00:00Z",
    "free_bikes": 7,
    "empty_slots": 0,
    "extra": {
      "uid": "00001611",
      "renting": true,
      "returning": true,
      "last_updated": 1747369328,
      "slots": 7,
      "virtual": false
    }
  },
  {
    "id": "0d3949dd0b3b60a36a2ea2bb448fd6d5",
    "name": "527.中川郵便局",
    "latitude": 35.140651,
    "longitude": 136.861513,
    "timestamp": "2025-05-16T04:22:48.474219+00:00Z",
    "free_bikes": 13,
    "empty_slots": 0,
    "extra": {
      "uid": "00003486",
      "renting": true,
      "returning": true,
      "last_updated": 1747369328,
      "slots": 13,
      "virtual": false
    }
  },
  {
    "id": "0d4fdaa5de2ffdd0e2b9d0c325d714d2",
    "name": "124.名鉄協商パーキング白川公園",
    "latitude": 35.165423,
    "longitude": 136.898113,
    "timestamp": "2025-05-16T04:22:47.830034+00:00Z",
    "free_bikes": 8,
    "empty_slots": 0,
    "extra": {
      "uid": "00000389",
      "renting": true,
      "returning": true,
      "last_updated": 1747369328,
      "slots": 8,
      "virtual": false
    }
  },
  {
    "id": "0dd36edb9515b13c2b907c7bfa930148",
    "name": "502.愛知東邦大学",
    "latitude": 35.170631,
    "longitude": 136.987182,
    "timestamp": "2025-05-16T04:22:48.437207+00:00Z",
    "free_bikes": 2,
    "empty_slots": 1,
    "extra": {
      "uid": "00003370",
      "renting": true,
      "returning": true,
      "last_updated": 1747369328,
      "slots": 3,
      "virtual": false
    }
  },
  {
    "id": "0df86e776ae7459a062821f08b0411df",
    "name": "077.グランメール城西",
    "latitude": 35.182883,
    "longitude": 136.893885,
    "timestamp": "2025-05-16T04:22:47.780015+00:00Z",
    "free_bikes": 3,
    "empty_slots": 2,
    "extra": {
      "uid": "00000251",
      "renting": true,
      "returning": true,
      "last_updated": 1747369328,
      "slots": 5,
      "virtual": false
    }
  },
  {
    "id": "0e8df5cc9a1d0c8ecfd06ad81cce9d96",
    "name": "448.大須観音",
    "latitude": 35.159761,
    "longitude": 136.898534,
    "timestamp": "2025-05-16T04:22:48.343469+00:00Z",
    "free_bikes": 5,
    "empty_slots": 3,
    "extra": {
      "uid": "00002860",
      "renting": true,
      "returning": true,
      "last_updated": 1747369328,
      "slots": 8,
      "virtual": false
    }
  },
  {
    "id": "0fc5c87e64b831381b77edaa8f786fed",
    "name": "142.ＤＰスクエア錦",
    "latitude": 35.170365,
    "longitude": 136.893986,
    "timestamp": "2025-05-16T04:22:47.853654+00:00Z",
    "free_bikes": 2,
    "empty_slots": 5,
    "extra": {
      "uid": "00000544",
      "renting": true,
      "returning": true,
      "last_updated": 1747369328,
      "slots": 7,
      "virtual": false
    }
  },
  {
    "id": "102610dce9bbab2de9edd68dd5d5b9cf",
    "name": "312.KOMA-HILLS 東山公園",
    "latitude": 35.163636,
    "longitude": 136.97191,
    "timestamp": "2025-05-16T04:22:48.082029+00:00Z",
    "free_bikes": 3,
    "empty_slots": 1,
    "extra": {
      "uid": "00001706",
      "renting": true,
      "returning": true,
      "last_updated": 1747369328,
      "slots": 4,
      "virtual": false
    }
  },
  {
    "id": "124e0e80cb6545dc2e47379da7b2aefb",
    "name": "416.RAKU SPA GARDEN 名古屋",
    "latitude": 35.178445,
    "longitude": 136.978997,
    "timestamp": "2025-05-16T04:22:48.325462+00:00Z",
    "free_bikes": 2,
    "empty_slots": 2,
    "extra": {
      "uid": "00002803",
      "renting": true,
      "returning": true,
      "last_updated": 1747369328,
      "slots": 4,
      "virtual": false
    }
  },
  {
    "id": "124ea09a95a5ff2f5f259011d15ed6a3",
    "name": "248.カーサナカムラ",
    "latitude": 35.172806,
    "longitude": 136.85932,
    "timestamp": "2025-05-16T04:22:47.999066+00:00Z",
    "free_bikes": 2,
    "empty_slots": 1,
    "extra": {
      "uid": "00001283",
      "renting": true,
      "returning": true,
      "last_updated": 1747369328,
      "slots": 3,
      "virtual": false
    }
  },
  {
    "id": "12f55fbeec62de0c00c5cce8a74a42ac",
    "name": "235.ファミリーマート城西病院前店",
    "latitude": 35.159109,
    "longitude": 136.864731,
    "timestamp": "2025-05-16T04:22:47.984912+00:00Z",
    "free_bikes": 8,
    "empty_slots": 0,
    "extra": {
      "uid": "00001190",
      "renting": true,
      "returning": true,
      "last_updated": 1747369328,
      "slots": 8,
      "virtual": false
    }
  },
  {
    "id": "13af492a504a733ae8219c6a8bbea8c7",
    "name": "039.納屋橋ゆめ広場",
    "latitude": 35.166138,
    "longitude": 136.89223,
    "timestamp": "2025-05-16T04:22:48.807673+00:00Z",
    "free_bikes": 2,
    "empty_slots": 1,
    "extra": {
      "uid": "00087034",
      "renting": true,
      "returning": true,
      "last_updated": 1747369328,
      "slots": 3,
      "virtual": false
    }
  },
  {
    "id": "13f1f10ec14258056aa472c6a9950b5d",
    "name": "291.Felice（フェリーチェ）",
    "latitude": 35.184061,
    "longitude": 136.863799,
    "timestamp": "2025-05-16T04:22:48.048968+00:00Z",
    "free_bikes": 0,
    "empty_slots": 3,
    "extra": {
      "uid": "00001586",
      "renting": true,
      "returning": true,
      "last_updated": 1747369328,
      "slots": 3,
      "virtual": false
    }
  },
  {
    "id": "146a216534e2b2da01e080f554990369",
    "name": "422.笈瀬川自転車駐車場",
    "latitude": 35.174968,
    "longitude": 136.880084,
    "timestamp": "2025-05-16T04:22:48.309278+00:00Z",
    "free_bikes": 4,
    "empty_slots": 1,
    "extra": {
      "uid": "00002771",
      "renting": true,
      "returning": true,
      "last_updated": 1747369328,
      "slots": 5,
      "virtual": false
    }
  },
  {
    "id": "149c4b74fd04a61ac3cc4f320bf5c3f8",
    "name": "201.第三ミヤチビルディング",
    "latitude": 35.15752,
    "longitude": 136.909958,
    "timestamp": "2025-05-16T04:22:47.942817+00:00Z",
    "free_bikes": 0,
    "empty_slots": 3,
    "extra": {
      "uid": "00000975",
      "renting": true,
      "returning": true,
      "last_updated": 1747369328,
      "slots": 3,
      "virtual": false
    }
  },
  {
    "id": "1697ed95f9124e8039abc7c0e5bca5e7",
    "name": "268.アーバンネット名古屋ビル",
    "latitude": 35.173355,
    "longitude": 136.910131,
    "timestamp": "2025-05-16T04:22:48.017991+00:00Z",
    "free_bikes": 13,
    "empty_slots": 0,
    "extra": {
      "uid": "00001377",
      "renting": true,
      "returning": true,
      "last_updated": 1747369328,
      "slots": 13,
      "virtual": false
    }
  },
  {
    "id": "16eedbf6e46362f0adcce046acb1acc7",
    "name": "496.中村郵便局",
    "latitude": 35.166483,
    "longitude": 136.863743,
    "timestamp": "2025-05-16T04:22:48.441593+00:00Z",
    "free_bikes": 0,
    "empty_slots": 3,
    "extra": {
      "uid": "00003379",
      "renting": true,
      "returning": true,
      "last_updated": 1747369328,
      "slots": 3,
      "virtual": false
    }
  },
  {
    "id": "17b9a4d2535a7c6bb9edb8914ce3fa2c",
    "name": "523.フォレシティ桜山",
    "latitude": 35.137462,
    "longitude": 136.930897,
    "timestamp": "2025-05-16T04:22:48.484185+00:00Z",
    "free_bikes": 1,
    "empty_slots": 4,
    "extra": {
      "uid": "00003568",
      "renting": true,
      "returning": true,
      "last_updated": 1747369328,
      "slots": 5,
      "virtual": false
    }
  },
  {
    "id": "17f5f5e12f83cc1385c89e11424e0ec3",
    "name": "388.アーバンラフレ志賀",
    "latitude": 35.204446,
    "longitude": 136.914247,
    "timestamp": "2025-05-16T04:22:48.212304+00:00Z",
    "free_bikes": 0,
    "empty_slots": 7,
    "extra": {
      "uid": "00002220",
      "renting": true,
      "returning": true,
      "last_updated": 1747369328,
      "slots": 7,
      "virtual": false
    }
  },
  {
    "id": "1853d906c1696a9c5788f2ecf579b3ea",
    "name": "121.ファミリーマート柳原二丁目店",
    "latitude": 35.191195,
    "longitude": 136.908134,
    "timestamp": "2025-05-16T04:22:47.836501+00:00Z",
    "free_bikes": 1,
    "empty_slots": 2,
    "extra": {
      "uid": "00000395",
      "renting": true,
      "returning": true,
      "last_updated": 1747369328,
      "slots": 3,
      "virtual": false
    }
  },
  {
    "id": "1862835e9151206660248805ffb7d4cb",
    "name": "096.ファミリーマート南武平町店",
    "latitude": 35.163715,
    "longitude": 136.91096,
    "timestamp": "2025-05-16T04:22:47.807206+00:00Z",
    "free_bikes": 2,
    "empty_slots": 1,
    "extra": {
      "uid": "00000344",
      "renting": true,
      "returning": true,
      "last_updated": 1747369328,
      "slots": 3,
      "virtual": false
    }
  },
  {
    "id": "19a87c41ec52295a2482053c5c6dd934",
    "name": "406.名鉄協商パーキング一社駅北第2",
    "latitude": 35.170088,
    "longitude": 136.996938,
    "timestamp": "2025-05-16T04:22:48.243725+00:00Z",
    "free_bikes": 1,
    "empty_slots": 2,
    "extra": {
      "uid": "00002405",
      "renting": true,
      "returning": true,
      "last_updated": 1747369328,
      "slots": 3,
      "virtual": false
    }
  },
  {
    "id": "1b6c0d9a9d629693edc6c78eb7e2f3a4",
    "name": "053.名鉄協商パーキング金山西",
    "latitude": 35.145419,
    "longitude": 136.896408,
    "timestamp": "2025-05-16T04:22:48.819235+00:00Z",
    "free_bikes": 0,
    "empty_slots": 6,
    "extra": {
      "uid": "00087048",
      "renting": true,
      "returning": true,
      "last_updated": 1747369328,
      "slots": 6,
      "virtual": false
    }
  },
  {
    "id": "1b7d223a80cce8083b3d3f3237d8766c",
    "name": "500.名東郵便局",
    "latitude": 35.166385,
    "longitude": 137.005754,
    "timestamp": "2025-05-16T04:22:48.443614+00:00Z",
    "free_bikes": 2,
    "empty_slots": 1,
    "extra": {
      "uid": "00003383",
      "renting": true,
      "returning": true,
      "last_updated": 1747369328,
      "slots": 3,
      "virtual": false
    }
  },
  {
    "id": "1b9d08cd2671e89f5fbcf5332a49bdce",
    "name": "319.カレント新栄",
    "latitude": 35.168589,
    "longitude": 136.918396,
    "timestamp": "2025-05-16T04:22:48.110674+00:00Z",
    "free_bikes": 2,
    "empty_slots": 1,
    "extra": {
      "uid": "00001784",
      "renting": true,
      "returning": true,
      "last_updated": 1747369328,
      "slots": 3,
      "virtual": false
    }
  },
  {
    "id": "1dbff7f620a4e9eeddefa5e1d3f69065",
    "name": "529.名古屋北郵便局",
    "latitude": 35.203329,
    "longitude": 136.92363,
    "timestamp": "2025-05-16T04:22:48.475296+00:00Z",
    "free_bikes": 5,
    "empty_slots": 0,
    "extra": {
      "uid": "00003488",
      "renting": true,
      "returning": true,
      "last_updated": 1747369328,
      "slots": 5,
      "virtual": false
    }
  },
  {
    "id": "1ded04b2ed2a476b8317a102302e3ff1",
    "name": "368.テルッツォ赤坂",
    "latitude": 35.182148,
    "longitude": 136.95882,
    "timestamp": "2025-05-16T04:22:48.197320+00:00Z",
    "free_bikes": 1,
    "empty_slots": 2,
    "extra": {
      "uid": "00002187",
      "renting": true,
      "returning": true,
      "last_updated": 1747369328,
      "slots": 3,
      "virtual": false
    }
  },
  {
    "id": "1e0e4125e9361c3d88b395536825eb31",
    "name": "224.ファミリーマート名西稲生店",
    "latitude": 35.209847,
    "longitude": 136.898568,
    "timestamp": "2025-05-16T04:22:47.959690+00:00Z",
    "free_bikes": 0,
    "empty_slots": 3,
    "extra": {
      "uid": "00001151",
      "renting": true,
      "returning": true,
      "last_updated": 1747369328,
      "slots": 3,
      "virtual": false
    }
  },
  {
    "id": "1ed47636effe6f916b42bbf184f77cde",
    "name": "345.名鉄協商パーキング十王町第2",
    "latitude": 35.179756,
    "longitude": 136.869997,
    "timestamp": "2025-05-16T04:22:48.134584+00:00Z",
    "free_bikes": 1,
    "empty_slots": 5,
    "extra": {
      "uid": "00001890",
      "renting": true,
      "returning": true,
      "last_updated": 1747369328,
      "slots": 6,
      "virtual": false
    }
  },
  {
    "id": "1f33934a03d48a1798a6cf4df946987d",
    "name": "470.三洋堂書店いりなか店",
    "latitude": 35.142959,
    "longitude": 136.955,
    "timestamp": "2025-05-16T04:22:48.380276+00:00Z",
    "free_bikes": 2,
    "empty_slots": 1,
    "extra": {
      "uid": "00003026",
      "renting": true,
      "returning": true,
      "last_updated": 1747369328,
      "slots": 3,
      "virtual": false
    }
  },
  {
    "id": "202cc01a3a0fd832e2a3b73eef88187f",
    "name": "210.サンモール菊井",
    "latitude": 35.180106,
    "longitude": 136.886733,
    "timestamp": "2025-05-16T04:22:47.946240+00:00Z",
    "free_bikes": 0,
    "empty_slots": 4,
    "extra": {
      "uid": "00001068",
      "renting": true,
      "returning": true,
      "last_updated": 1747369328,
      "slots": 4,
      "virtual": false
    }
  },
  {
    "id": "20c289aac2e34434e48aadb4308dfd35",
    "name": "450.名古屋工業大学北門",
    "latitude": 35.159253,
    "longitude": 136.924402,
    "timestamp": "2025-05-16T04:22:48.338241+00:00Z",
    "free_bikes": 3,
    "empty_slots": 2,
    "extra": {
      "uid": "00002857",
      "renting": true,
      "returning": true,
      "last_updated": 1747369328,
      "slots": 5,
      "virtual": false
    }
  },
  {
    "id": "219f3cd5ec0e09999f19b7e71aaba16c",
    "name": "276.イオンタウン千種(1)(2)",
    "latitude": 35.161541,
    "longitude": 136.923512,
    "timestamp": "2025-05-16T04:22:48.017237+00:00Z",
    "free_bikes": 0,
    "empty_slots": 10,
    "extra": {
      "uid": "00001369",
      "renting": true,
      "returning": true,
      "last_updated": 1747369328,
      "slots": 10,
      "virtual": false
    }
  },
  {
    "id": "222336fc476128da1cb2c715f9af3239",
    "name": "074.St.Regis IZUMI (セントレジス泉）",
    "latitude": 35.177253,
    "longitude": 136.910716,
    "timestamp": "2025-05-16T04:22:47.770127+00:00Z",
    "free_bikes": 1,
    "empty_slots": 2,
    "extra": {
      "uid": "00000214",
      "renting": true,
      "returning": true,
      "last_updated": 1747369328,
      "slots": 3,
      "virtual": false
    }
  },
  {
    "id": "23644da76f3cc4d4ac9af136ed513782",
    "name": "054.Ｒ＆Ｂホテル名古屋駅前",
    "latitude": 35.16636,
    "longitude": 136.887,
    "timestamp": "2025-05-16T04:22:48.819588+00:00Z",
    "free_bikes": 1,
    "empty_slots": 2,
    "extra": {
      "uid": "00087049",
      "renting": true,
      "returning": true,
      "last_updated": 1747369328,
      "slots": 3,
      "virtual": false
    }
  },
  {
    "id": "2490007b5e73fbfcf1e4f349ebc30e83",
    "name": "538.PALET.NU",
    "latitude": 35.15004,
    "longitude": 136.87915,
    "timestamp": "2025-05-16T04:22:48.493493+00:00Z",
    "free_bikes": 1,
    "empty_slots": 3,
    "extra": {
      "uid": "00003606",
      "renting": true,
      "returning": true,
      "last_updated": 1747369328,
      "slots": 4,
      "virtual": false
    }
  },
  {
    "id": "24906e0372701676deaf2317bd185523",
    "name": "528.名古屋西郵便局",
    "latitude": 35.188666,
    "longitude": 136.883384,
    "timestamp": "2025-05-16T04:22:48.474992+00:00Z",
    "free_bikes": 0,
    "empty_slots": 5,
    "extra": {
      "uid": "00003487",
      "renting": true,
      "returning": true,
      "last_updated": 1747369328,
      "slots": 5,
      "virtual": false
    }
  },
  {
    "id": "24fc85c58a8ebf982a6148d538dea0e5",
    "name": "138.相鉄フレッサイン名古屋駅新幹線口",
    "latitude": 35.167547,
    "longitude": 136.879824,
    "timestamp": "2025-05-16T04:22:47.848681+00:00Z",
    "free_bikes": 0,
    "empty_slots": 5,
    "extra": {
      "uid": "00000465",
      "renting": true,
      "returning": true,
      "last_updated": 1747369328,
      "slots": 5,
      "virtual": false
    }
  },
  {
    "id": "2579d3e2d9e6f2b7c2dfda3a6dae3123",
    "name": "072.名鉄協商パーキング栄5丁目南",
    "latitude": 35.16256,
    "longitude": 136.914532,
    "timestamp": "2025-05-16T04:22:47.771901+00:00Z",
    "free_bikes": 1,
    "empty_slots": 2,
    "extra": {
      "uid": "00000230",
      "renting": true,
      "returning": true,
      "last_updated": 1747369328,
      "slots": 3,
      "virtual": false
    }
  },
  {
    "id": "263629ff2b2d659293ef51b2eb549b1d",
    "name": "216.JR大曽根駅（南改札）",
    "latitude": 35.188959,
    "longitude": 136.936734,
    "timestamp": "2025-05-16T04:22:47.946430+00:00Z",
    "free_bikes": 5,
    "empty_slots": 2,
    "extra": {
      "uid": "00001070",
      "renting": true,
      "returning": true,
      "last_updated": 1747369328,
      "slots": 7,
      "virtual": false
    }
  },
  {
    "id": "27728749db196710ec77e339d88c693a",
    "name": "375.名鉄協商パーキング筒井3丁目第4",
    "latitude": 35.175623,
    "longitude": 136.929609,
    "timestamp": "2025-05-16T04:22:48.217070+00:00Z",
    "free_bikes": 4,
    "empty_slots": 1,
    "extra": {
      "uid": "00002227",
      "renting": true,
      "returning": true,
      "last_updated": 1747369328,
      "slots": 5,
      "virtual": false
    }
  },
  {
    "id": "27888bd253f27597d2580be9975156fd",
    "name": "323.名鉄協商パーキング上社駅南第2",
    "latitude": 35.173638,
    "longitude": 137.008742,
    "timestamp": "2025-05-16T04:22:48.092706+00:00Z",
    "free_bikes": 2,
    "empty_slots": 3,
    "extra": {
      "uid": "00001764",
      "renting": true,
      "returning": true,
      "last_updated": 1747369328,
      "slots": 5,
      "virtual": false
    }
  },
  {
    "id": "27b6f5e8b3168791e51a0d1ced512557",
    "name": "221.ファミリーマート名古屋西高校前店",
    "latitude": 35.189597,
    "longitude": 136.883336,
    "timestamp": "2025-05-16T04:22:47.953031+00:00Z",
    "free_bikes": 0,
    "empty_slots": 3,
    "extra": {
      "uid": "00001118",
      "renting": true,
      "returning": true,
      "last_updated": 1747369328,
      "slots": 3,
      "virtual": false
    }
  },
  {
    "id": "28088c469ebf87099585a6035786d3a9",
    "name": "024.名鉄協商パーキング神宮前駅東街区立体駐車場",
    "latitude": 35.125854,
    "longitude": 136.913644,
    "timestamp": "2025-05-16T04:22:47.890722+00:00Z",
    "free_bikes": 0,
    "empty_slots": 3,
    "extra": {
      "uid": "00000678",
      "renting": true,
      "returning": true,
      "last_updated": 1747369328,
      "slots": 3,
      "virtual": false
    }
  },
  {
    "id": "282b2e0c980306d8c9905be6776c84dc",
    "name": "160.名駅東ビル",
    "latitude": 35.171655,
    "longitude": 136.891745,
    "timestamp": "2025-05-16T04:22:47.883484+00:00Z",
    "free_bikes": 1,
    "empty_slots": 3,
    "extra": {
      "uid": "00000670",
      "renting": true,
      "returning": true,
      "last_updated": 1747369328,
      "slots": 4,
      "virtual": false
    }
  },
  {
    "id": "28b05706e84efdf89fe7974e88a112cd",
    "name": "407.JR尾頭橋駅",
    "latitude": 35.14697,
    "longitude": 136.890978,
    "timestamp": "2025-05-16T04:22:48.270790+00:00Z",
    "free_bikes": 0,
    "empty_slots": 4,
    "extra": {
      "uid": "00002577",
      "renting": true,
      "returning": true,
      "last_updated": 1747369328,
      "slots": 4,
      "virtual": false
    }
  },
  {
    "id": "292ccb1ec86aa2eb757df326272262c0",
    "name": "013.名鉄協商パーキング名駅4丁目第8",
    "latitude": 35.169291,
    "longitude": 136.888481,
    "timestamp": "2025-05-16T04:22:48.783469+00:00Z",
    "free_bikes": 4,
    "empty_slots": 0,
    "extra": {
      "uid": "00087013",
      "renting": true,
      "returning": true,
      "last_updated": 1747369328,
      "slots": 4,
      "virtual": false
    }
  },
  {
    "id": "292d97b92ce3643952db5bab018215cf",
    "name": "481.ラウンドテラス伏見",
    "latitude": 35.168776,
    "longitude": 136.893985,
    "timestamp": "2025-05-16T04:22:48.394060+00:00Z",
    "free_bikes": 2,
    "empty_slots": 1,
    "extra": {
      "uid": "00003091",
      "renting": true,
      "returning": true,
      "last_updated": 1747369328,
      "slots": 3,
      "virtual": false
    }
  },
  {
    "id": "2942060fc73c9094dfafd7f37cee9852",
    "name": "211.TENAS丸の内",
    "latitude": 35.177613,
    "longitude": 136.89906,
    "timestamp": "2025-05-16T04:22:47.944475+00:00Z",
    "free_bikes": 0,
    "empty_slots": 1,
    "extra": {
      "uid": "00001046",
      "renting": true,
      "returning": true,
      "last_updated": 1747369328,
      "slots": 1,
      "virtual": false
    }
  },
  {
    "id": "299fcdba913a164036b419d2abc71ba6",
    "name": "037.名鉄協商パーキング大須MultinaBox駐輪場",
    "latitude": 35.160691,
    "longitude": 136.905421,
    "timestamp": "2025-05-16T04:22:48.807352+00:00Z",
    "free_bikes": 4,
    "empty_slots": 0,
    "extra": {
      "uid": "00087032",
      "renting": true,
      "returning": true,
      "last_updated": 1747369328,
      "slots": 4,
      "virtual": false
    }
  },
  {
    "id": "2a0ac0b8d7dd9cefb446130ec47e2c68",
    "name": "441.矢場町",
    "latitude": 35.162667,
    "longitude": 136.90704,
    "timestamp": "2025-05-16T04:22:48.339063+00:00Z",
    "free_bikes": 5,
    "empty_slots": 4,
    "extra": {
      "uid": "00002859",
      "renting": true,
      "returning": true,
      "last_updated": 1747369328,
      "slots": 9,
      "virtual": false
    }
  },
  {
    "id": "2abc61f5c0f219b443161fa15b608903",
    "name": "115.ファミリーマート城西二丁目店",
    "latitude": 35.184569,
    "longitude": 136.893505,
    "timestamp": "2025-05-16T04:22:47.830359+00:00Z",
    "free_bikes": 0,
    "empty_slots": 3,
    "extra": {
      "uid": "00000390",
      "renting": true,
      "returning": true,
      "last_updated": 1747369328,
      "slots": 3,
      "virtual": false
    }
  },
  {
    "id": "2af2b65ec896c094095e03c770547789",
    "name": "585.メイクス名駅太閤",
    "latitude": 35.162895,
    "longitude": 136.879672,
    "timestamp": "2025-05-16T04:22:48.618622+00:00Z",
    "free_bikes": 1,
    "empty_slots": 1,
    "extra": {
      "uid": "00004259",
      "renting": true,
      "returning": true,
      "last_updated": 1747369328,
      "slots": 2,
      "virtual": false
    }
  },
  {
    "id": "2ba88fa2abfaaf4b462da976c85f77a5",
    "name": "278.タウンライフ本郷駅前",
    "latitude": 35.176061,
    "longitude": 137.015739,
    "timestamp": "2025-05-16T04:22:48.042859+00:00Z",
    "free_bikes": 9,
    "empty_slots": 0,
    "extra": {
      "uid": "00001561",
      "renting": true,
      "returning": true,
      "last_updated": 1747369328,
      "slots": 9,
      "virtual": false
    }
  },
  {
    "id": "2c221e406fc04484d37d74390b52e0cc",
    "name": "451.名古屋工業大学正門",
    "latitude": 35.156489,
    "longitude": 136.923447,
    "timestamp": "2025-05-16T04:22:48.337659+00:00Z",
    "free_bikes": 8,
    "empty_slots": 4,
    "extra": {
      "uid": "00002855",
      "renting": true,
      "returning": true,
      "last_updated": 1747369328,
      "slots": 12,
      "virtual": false
    }
  },
  {
    "id": "2d5ff9863c6614aeadd1a6ec8aa76f2e",
    "name": "372.iiＮＥ ＭＡＲＳＨＥ",
    "latitude": 35.127352,
    "longitude": 136.92436,
    "timestamp": "2025-05-16T04:22:48.300865+00:00Z",
    "free_bikes": 0,
    "empty_slots": 5,
    "extra": {
      "uid": "00002765",
      "renting": true,
      "returning": true,
      "last_updated": 1747369328,
      "slots": 5,
      "virtual": false
    }
  },
  {
    "id": "2e04617d2170ad3fe12b730616524c25",
    "name": "267.ファミリーマート名古屋東大曽根店",
    "latitude": 35.186117,
    "longitude": 136.936664,
    "timestamp": "2025-05-16T04:22:48.005791+00:00Z",
    "free_bikes": 1,
    "empty_slots": 2,
    "extra": {
      "uid": "00001340",
      "renting": true,
      "returning": true,
      "last_updated": 1747369328,
      "slots": 3,
      "virtual": false
    }
  },
  {
    "id": "314707cbced2507afe05a1a32421f67e",
    "name": "521.太閤一丁目",
    "latitude": 35.166424,
    "longitude": 136.880672,
    "timestamp": "2025-05-16T04:22:48.465549+00:00Z",
    "free_bikes": 0,
    "empty_slots": 5,
    "extra": {
      "uid": "00003450",
      "renting": true,
      "returning": true,
      "last_updated": 1747369328,
      "slots": 5,
      "virtual": false
    }
  },
  {
    "id": "3153563dd3cbf4af6b237602a983c259",
    "name": "209.名鉄交通ビル",
    "latitude": 35.155204,
    "longitude": 136.891753,
    "timestamp": "2025-05-16T04:22:47.953338+00:00Z",
    "free_bikes": 2,
    "empty_slots": 3,
    "extra": {
      "uid": "00001120",
      "renting": true,
      "returning": true,
      "last_updated": 1747369328,
      "slots": 5,
      "virtual": false
    }
  },
  {
    "id": "32501967da5e5bbc015b0f29b7dc4c95",
    "name": "014.名鉄協商パーキング名駅3丁目PB",
    "latitude": 35.174423,
    "longitude": 136.88603,
    "timestamp": "2025-05-16T04:22:48.788627+00:00Z",
    "free_bikes": 3,
    "empty_slots": 1,
    "extra": {
      "uid": "00087014",
      "renting": true,
      "returning": true,
      "last_updated": 1747369328,
      "slots": 4,
      "virtual": false
    }
  },
  {
    "id": "33b865747a50163effbe9fbffa226854",
    "name": "420.六番町南自転車駐車場",
    "latitude": 35.123334,
    "longitude": 136.888138,
    "timestamp": "2025-05-16T04:22:48.286024+00:00Z",
    "free_bikes": 0,
    "empty_slots": 4,
    "extra": {
      "uid": "00002687",
      "renting": true,
      "returning": true,
      "last_updated": 1747369328,
      "slots": 4,
      "virtual": false
    }
  },
  {
    "id": "33bbdb60e60985616455d60c185d3e31",
    "name": "269.グローバルゲート",
    "latitude": 35.16155,
    "longitude": 136.882457,
    "timestamp": "2025-05-16T04:22:48.015763+00:00Z",
    "free_bikes": 4,
    "empty_slots": 2,
    "extra": {
      "uid": "00001362",
      "renting": true,
      "returning": true,
      "last_updated": 1747369328,
      "slots": 6,
      "virtual": false
    }
  },
  {
    "id": "345e5be271390d91dd096651e5e9bdea",
    "name": "580.名鉄協商パーキング高畑駅北第２",
    "latitude": 35.142984,
    "longitude": 136.85142,
    "timestamp": "2025-05-16T04:22:48.608486+00:00Z",
    "free_bikes": 1,
    "empty_slots": 3,
    "extra": {
      "uid": "00004160",
      "renting": true,
      "returning": true,
      "last_updated": 1747369328,
      "slots": 4,
      "virtual": false
    }
  },
  {
    "id": "3487e03fb53376dd74f41e8292cf9820",
    "name": "169.名鉄協商パーキング城西4丁目第6",
    "latitude": 35.191454,
    "longitude": 136.892431,
    "timestamp": "2025-05-16T04:22:47.895284+00:00Z",
    "free_bikes": 0,
    "empty_slots": 4,
    "extra": {
      "uid": "00000708",
      "renting": true,
      "returning": true,
      "last_updated": 1747369328,
      "slots": 4,
      "virtual": false
    }
  },
  {
    "id": "34a4c8f22f151c25e0060482d905a420",
    "name": "272.ファミリーマート千成通店",
    "latitude": 35.16334,
    "longitude": 136.86731,
    "timestamp": "2025-05-16T04:22:48.016392+00:00Z",
    "free_bikes": 3,
    "empty_slots": 2,
    "extra": {
      "uid": "00001364",
      "renting": true,
      "returning": true,
      "last_updated": 1747369328,
      "slots": 5,
      "virtual": false
    }
  },
  {
    "id": "34ab3d84dd38c565e48075b7deb01fe9",
    "name": "353.ヨシヅヤYストア笹塚食品館",
    "latitude": 35.199789,
    "longitude": 136.883109,
    "timestamp": "2025-05-16T04:22:48.148577+00:00Z",
    "free_bikes": 2,
    "empty_slots": 3,
    "extra": {
      "uid": "00001934",
      "renting": true,
      "returning": true,
      "last_updated": 1747369328,
      "slots": 5,
      "virtual": false
    }
  },
  {
    "id": "3583066013220041e16044ae798b7cab",
    "name": "413.名鉄協商パーキング児玉2丁目第3",
    "latitude": 35.194539,
    "longitude": 136.885717,
    "timestamp": "2025-05-16T04:22:48.286342+00:00Z",
    "free_bikes": 0,
    "empty_slots": 2,
    "extra": {
      "uid": "00002688",
      "renting": true,
      "returning": true,
      "last_updated": 1747369328,
      "slots": 2,
      "virtual": false
    }
  },
  {
    "id": "35d7b19a54fe9a411fa8544d73fdab36",
    "name": "316.ヨシヅヤ名古屋名西店",
    "latitude": 35.190027,
    "longitude": 136.877471,
    "timestamp": "2025-05-16T04:22:48.123961+00:00Z",
    "free_bikes": 2,
    "empty_slots": 3,
    "extra": {
      "uid": "00001856",
      "renting": true,
      "returning": true,
      "last_updated": 1747369328,
      "slots": 5,
      "virtual": false
    }
  },
  {
    "id": "36851ff28c2046cec47c16e3d6a3c0bf",
    "name": "550.愛知学院大学 楠元キャンパス",
    "latitude": 35.167655,
    "longitude": 136.962055,
    "timestamp": "2025-05-16T04:22:48.563588+00:00Z",
    "free_bikes": 3,
    "empty_slots": 2,
    "extra": {
      "uid": "00003888",
      "renting": true,
      "returning": true,
      "last_updated": 1747369328,
      "slots": 5,
      "virtual": false
    }
  },
  {
    "id": "36903b9a576a8a3604f2f77fb314a8c7",
    "name": "246.キャッスルタウン記念橋",
    "latitude": 35.151266,
    "longitude": 136.90848,
    "timestamp": "2025-05-16T04:22:47.999460+00:00Z",
    "free_bikes": 0,
    "empty_slots": 4,
    "extra": {
      "uid": "00001286",
      "renting": true,
      "returning": true,
      "last_updated": 1747369328,
      "slots": 4,
      "virtual": false
    }
  },
  {
    "id": "3703489310e86074c9eb8df8db5106d3",
    "name": "543.名鉄協商パーキング神宮前北",
    "latitude": 35.126985,
    "longitude": 136.911023,
    "timestamp": "2025-05-16T04:22:48.517657+00:00Z",
    "free_bikes": 0,
    "empty_slots": 3,
    "extra": {
      "uid": "00003686",
      "renting": true,
      "returning": true,
      "last_updated": 1747369328,
      "slots": 3,
      "virtual": false
    }
  },
  {
    "id": "37463133a602cb40bfc9141d72b945c6",
    "name": "007. 名鉄協商パーキング  かこまち",
    "latitude": 35.160884,
    "longitude": 136.891448,
    "timestamp": "2025-05-16T04:22:48.778802+00:00Z",
    "free_bikes": 0,
    "empty_slots": 6,
    "extra": {
      "uid": "00087008",
      "renting": true,
      "returning": true,
      "last_updated": 1747369328,
      "slots": 6,
      "virtual": false
    }
  },
  {
    "id": "3806ae29c78bf305611583d129c9df5e",
    "name": "033.名鉄協商パーキング新栄1丁目第15",
    "latitude": 35.165035,
    "longitude": 136.919557,
    "timestamp": "2025-05-16T04:22:48.776766+00:00Z",
    "free_bikes": 0,
    "empty_slots": 3,
    "extra": {
      "uid": "00087004",
      "renting": true,
      "returning": true,
      "last_updated": 1747369328,
      "slots": 3,
      "virtual": false
    }
  },
  {
    "id": "3954e12d5c3ad6c6d816ec800f0f2499",
    "name": "285.錦2丁目ポート長島町通第２",
    "latitude": 35.169818,
    "longitude": 136.899759,
    "timestamp": "2025-05-16T04:22:48.026227+00:00Z",
    "free_bikes": 6,
    "empty_slots": 1,
    "extra": {
      "uid": "00001438",
      "renting": true,
      "returning": true,
      "last_updated": 1747369328,
      "slots": 7,
      "virtual": false
    }
  },
  {
    "id": "39849844233048cbc6c890a6831fbfd3",
    "name": "304.NTTコミュニケーションズ代官町ビル",
    "latitude": 35.174412,
    "longitude": 136.924261,
    "timestamp": "2025-05-16T04:22:48.067747+00:00Z",
    "free_bikes": 0,
    "empty_slots": 7,
    "extra": {
      "uid": "00001620",
      "renting": true,
      "returning": true,
      "last_updated": 1747369328,
      "slots": 7,
      "virtual": false
    }
  },
  {
    "id": "39932dc14fb734fdd0966263c64a4636",
    "name": "129.新栄第7ロイヤルマンション",
    "latitude": 35.164312,
    "longitude": 136.9185,
    "timestamp": "2025-05-16T04:22:47.840712+00:00Z",
    "free_bikes": 0,
    "empty_slots": 3,
    "extra": {
      "uid": "00000418",
      "renting": true,
      "returning": true,
      "last_updated": 1747369328,
      "slots": 3,
      "virtual": false
    }
  },
  {
    "id": "3a55afeff7505c3724f7da223d68b00f",
    "name": "356.車道駅ステーション（東側）",
    "latitude": 35.17286,
    "longitude": 136.930753,
    "timestamp": "2025-05-16T04:22:48.261578+00:00Z",
    "free_bikes": 2,
    "empty_slots": 5,
    "extra": {
      "uid": "00002507",
      "renting": true,
      "returning": true,
      "last_updated": 1747369328,
      "slots": 7,
      "virtual": false
    }
  },
  {
    "id": "3b0adad1ddff6d3f611a21133bd18f79",
    "name": "161.扇港電機",
    "latitude": 35.165312,
    "longitude": 136.864981,
    "timestamp": "2025-05-16T04:22:47.880291+00:00Z",
    "free_bikes": 0,
    "empty_slots": 5,
    "extra": {
      "uid": "00000655",
      "renting": true,
      "returning": true,
      "last_updated": 1747369328,
      "slots": 5,
      "virtual": false
    }
  },
  {
    "id": "3b69db8b94350f9520e7e66531574287",
    "name": "587.名鉄協商パーキング石川橋",
    "latitude": 35.14036,
    "longitude": 136.944985,
    "timestamp": "2025-05-16T04:22:48.620414+00:00Z",
    "free_bikes": 5,
    "empty_slots": 1,
    "extra": {
      "uid": "00004317",
      "renting": true,
      "returning": true,
      "last_updated": 1747369328,
      "slots": 6,
      "virtual": false
    }
  },
  {
    "id": "3c7dcfbffc63e83fa8ff704a97a12421",
    "name": "265.徳川園",
    "latitude": 35.18551,
    "longitude": 136.933086,
    "timestamp": "2025-05-16T04:22:48.012525+00:00Z",
    "free_bikes": 2,
    "empty_slots": 1,
    "extra": {
      "uid": "00001344",
      "renting": true,
      "returning": true,
      "last_updated": 1747369328,
      "slots": 3,
      "virtual": false
    }
  },
  {
    "id": "3cc9d4bfca20a7d297e1a9f1d9a40f1d",
    "name": "567.若鳩ハイツ",
    "latitude": 35.176787,
    "longitude": 136.867578,
    "timestamp": "2025-05-16T04:22:48.578235+00:00Z",
    "free_bikes": 5,
    "empty_slots": 1,
    "extra": {
      "uid": "00004031",
      "renting": true,
      "returning": true,
      "last_updated": 1747369328,
      "slots": 6,
      "virtual": false
    }
  },
  {
    "id": "3cf5802483141f864f99192b1b588714",
    "name": "068.金山駅東口",
    "latitude": 35.142426,
    "longitude": 136.902294,
    "timestamp": "2025-05-16T04:22:47.766594+00:00Z",
    "free_bikes": 3,
    "empty_slots": 2,
    "extra": {
      "uid": "00000176",
      "renting": true,
      "returning": true,
      "last_updated": 1747369328,
      "slots": 5,
      "virtual": false
    }
  },
  {
    "id": "3d21ec851a43ae2857eb6b739f4e0705",
    "name": "562.ガーデンビル城下",
    "latitude": 35.194666,
    "longitude": 136.970578,
    "timestamp": "2025-05-16T04:22:48.577092+00:00Z",
    "free_bikes": 1,
    "empty_slots": 2,
    "extra": {
      "uid": "00003989",
      "renting": true,
      "returning": true,
      "last_updated": 1747369328,
      "slots": 3,
      "virtual": false
    }
  },
  {
    "id": "3d590d903d86164e955eb445c355ea70",
    "name": "114.則武新町立体駐車場前",
    "latitude": 35.181193,
    "longitude": 136.880191,
    "timestamp": "2025-05-16T04:22:47.827261+00:00Z",
    "free_bikes": 0,
    "empty_slots": 10,
    "extra": {
      "uid": "00000369",
      "renting": true,
      "returning": true,
      "last_updated": 1747369328,
      "slots": 10,
      "virtual": false
    }
  },
  {
    "id": "3dc0e40444e0fa2add5b99e5f59e4a86",
    "name": "191.東横INN 名古屋金山",
    "latitude": 35.146424,
    "longitude": 136.89776,
    "timestamp": "2025-05-16T04:22:47.935047+00:00Z",
    "free_bikes": 1,
    "empty_slots": 2,
    "extra": {
      "uid": "00000920",
      "renting": true,
      "returning": true,
      "last_updated": 1747369328,
      "slots": 3,
      "virtual": false
    }
  },
  {
    "id": "3dfeb22288b98f9a090e25e24d8c684a",
    "name": "432.千種東住宅",
    "latitude": 35.177985,
    "longitude": 136.948668,
    "timestamp": "2025-05-16T04:22:48.301878+00:00Z",
    "free_bikes": 1,
    "empty_slots": 4,
    "extra": {
      "uid": "00002768",
      "renting": true,
      "returning": true,
      "last_updated": 1747369328,
      "slots": 5,
      "virtual": false
    }
  },
  {
    "id": "3e1300162843951bce8ecc1e41365a7f",
    "name": "417.プレイランドキャッスル上社店",
    "latitude": 35.174317,
    "longitude": 137.009497,
    "timestamp": "2025-05-16T04:22:48.285040+00:00Z",
    "free_bikes": 4,
    "empty_slots": 1,
    "extra": {
      "uid": "00002681",
      "renting": true,
      "returning": true,
      "last_updated": 1747369328,
      "slots": 5,
      "virtual": false
    }
  },
  {
    "id": "3e432eb29c4a34b2b26b0c57886e85d9",
    "name": "571.桧ケ根公園 西側入口(長久手市中央図書館 入口)前",
    "latitude": 35.181544,
    "longitude": 137.038988,
    "timestamp": "2025-05-16T04:22:48.582541+00:00Z",
    "free_bikes": 2,
    "empty_slots": 1,
    "extra": {
      "uid": "00004051",
      "renting": true,
      "returning": true,
      "last_updated": 1747369328,
      "slots": 3,
      "virtual": false
    }
  },
  {
    "id": "3e576e155ea08c2a718c06bc0c37a2f7",
    "name": "482.中部電力パワーグリッド中村営業所",
    "latitude": 35.167963,
    "longitude": 136.862336,
    "timestamp": "2025-05-16T04:22:48.411959+00:00Z",
    "free_bikes": 3,
    "empty_slots": 1,
    "extra": {
      "uid": "00003167",
      "renting": true,
      "returning": true,
      "last_updated": 1747369328,
      "slots": 4,
      "virtual": false
    }
  },
  {
    "id": "3ed9f2389102fe8df54b6eafcb139844",
    "name": "147.名鉄協商パーキング東桜第2",
    "latitude": 35.173935,
    "longitude": 136.918587,
    "timestamp": "2025-05-16T04:22:47.855430+00:00Z",
    "free_bikes": 0,
    "empty_slots": 2,
    "extra": {
      "uid": "00000564",
      "renting": true,
      "returning": true,
      "last_updated": 1747369328,
      "slots": 2,
      "virtual": false
    }
  },
  {
    "id": "3f5110aff2f937f560ee916ac8618e96",
    "name": "120.ファミリーマート名古屋千代田店",
    "latitude": 35.153325,
    "longitude": 136.911482,
    "timestamp": "2025-05-16T04:22:47.836143+00:00Z",
    "free_bikes": 0,
    "empty_slots": 5,
    "extra": {
      "uid": "00000394",
      "renting": true,
      "returning": true,
      "last_updated": 1747369328,
      "slots": 5,
      "virtual": false
    }
  },
  {
    "id": "40102d7dfb63e9f4419ea794dfb027f8",
    "name": "382.UR日比野",
    "latitude": 35.131934,
    "longitude": 136.891409,
    "timestamp": "2025-05-16T04:22:48.202435+00:00Z",
    "free_bikes": 6,
    "empty_slots": 0,
    "extra": {
      "uid": "00002214",
      "renting": true,
      "returning": true,
      "last_updated": 1747369328,
      "slots": 6,
      "virtual": false
    }
  },
  {
    "id": "4103b5254eb3bd004f37aea7978847f9",
    "name": "181.hostel nico",
    "latitude": 35.156937,
    "longitude": 136.903523,
    "timestamp": "2025-05-16T04:22:47.916573+00:00Z",
    "free_bikes": 0,
    "empty_slots": 5,
    "extra": {
      "uid": "00000829",
      "renting": true,
      "returning": true,
      "last_updated": 1747369328,
      "slots": 5,
      "virtual": false
    }
  },
  {
    "id": "41224607bd378b375ee07a95d892c3ed",
    "name": "390.アーバンラフレ鳩岡",
    "latitude": 35.206884,
    "longitude": 136.912818,
    "timestamp": "2025-05-16T04:22:48.212610+00:00Z",
    "free_bikes": 12,
    "empty_slots": 0,
    "extra": {
      "uid": "00002222",
      "renting": true,
      "returning": true,
      "last_updated": 1747369328,
      "slots": 12,
      "virtual": false
    }
  },
  {
    "id": "415d5cdc7308474d5c878bb9a7660aba",
    "name": "360.ドコモショップ千代田橋店",
    "latitude": 35.185767,
    "longitude": 136.969478,
    "timestamp": "2025-05-16T04:22:48.159071+00:00Z",
    "free_bikes": 3,
    "empty_slots": 0,
    "extra": {
      "uid": "00001947",
      "renting": true,
      "returning": true,
      "last_updated": 1747369328,
      "slots": 3,
      "virtual": false
    }
  },
  {
    "id": "415f400dc62b7c1996b0d4e3c0c00e8d",
    "name": "575.八事駅前",
    "latitude": 35.137696,
    "longitude": 136.963403,
    "timestamp": "2025-05-16T04:22:48.582712+00:00Z",
    "free_bikes": 2,
    "empty_slots": 2,
    "extra": {
      "uid": "00004052",
      "renting": true,
      "returning": true,
      "last_updated": 1747369328,
      "slots": 4,
      "virtual": false
    }
  },
  {
    "id": "419a46a9a4573bcca10027776f3ff95e",
    "name": "329.マルハン茶屋が坂店",
    "latitude": 35.183931,
    "longitude": 136.961993,
    "timestamp": "2025-05-16T04:22:48.121398+00:00Z",
    "free_bikes": 9,
    "empty_slots": 0,
    "extra": {
      "uid": "00001851",
      "renting": true,
      "returning": true,
      "last_updated": 1747369328,
      "slots": 9,
      "virtual": false
    }
  },
  {
    "id": "41e76ab340fa9e56937d3c1762b2c8a3",
    "name": "454.COLLECT MARK 金山（1）",
    "latitude": 35.142625,
    "longitude": 136.90288,
    "timestamp": "2025-05-16T04:22:48.364183+00:00Z",
    "free_bikes": 4,
    "empty_slots": 0,
    "extra": {
      "uid": "00002906",
      "renting": true,
      "returning": true,
      "last_updated": 1747369328,
      "slots": 4,
      "virtual": false
    }
  },
  {
    "id": "4281bdd2449ebe8935be91aaffd694e7",
    "name": "445.住吉通",
    "latitude": 35.166748,
    "longitude": 136.903581,
    "timestamp": "2025-05-16T04:22:48.348071+00:00Z",
    "free_bikes": 4,
    "empty_slots": 1,
    "extra": {
      "uid": "00002866",
      "renting": true,
      "returning": true,
      "last_updated": 1747369328,
      "slots": 5,
      "virtual": false
    }
  },
  {
    "id": "42ecb71314048c9eecb68e75fa7921b2",
    "name": "112.サンプラザ金山",
    "latitude": 35.146467,
    "longitude": 136.900576,
    "timestamp": "2025-05-16T04:22:47.824974+00:00Z",
    "free_bikes": 1,
    "empty_slots": 2,
    "extra": {
      "uid": "00000367",
      "renting": true,
      "returning": true,
      "last_updated": 1747369328,
      "slots": 3,
      "virtual": false
    }
  },
  {
    "id": "4332b51497f62da95be44af3f6284a4b",
    "name": "016.名鉄協商パーキング栄Ｍ",
    "latitude": 35.165929,
    "longitude": 136.910029,
    "timestamp": "2025-05-16T04:22:48.801618+00:00Z",
    "free_bikes": 5,
    "empty_slots": 1,
    "extra": {
      "uid": "00087016",
      "renting": true,
      "returning": true,
      "last_updated": 1747369328,
      "slots": 6,
      "virtual": false
    }
  },
  {
    "id": "434e1b3d8d443938176abe4d199b5317",
    "name": "173.天王崎橋上流右岸広場ステーション",
    "latitude": 35.166151,
    "longitude": 136.891872,
    "timestamp": "2025-05-16T04:22:47.902398+00:00Z",
    "free_bikes": 1,
    "empty_slots": 1,
    "extra": {
      "uid": "00000725",
      "renting": true,
      "returning": true,
      "last_updated": 1747369328,
      "slots": 2,
      "virtual": false
    }
  },
  {
    "id": "43982313d14f48d7fb57df89871e846d",
    "name": "564.名鉄協商パーキング金屋1丁目",
    "latitude": 35.203339,
    "longitude": 136.950535,
    "timestamp": "2025-05-16T04:22:48.574597+00:00Z",
    "free_bikes": 3,
    "empty_slots": 1,
    "extra": {
      "uid": "00003966",
      "renting": true,
      "returning": true,
      "last_updated": 1747369328,
      "slots": 4,
      "virtual": false
    }
  },
  {
    "id": "4472fe2117510b7b46d5b0f0279f15d8",
    "name": "403.コート・サイド杁中",
    "latitude": 35.143955,
    "longitude": 136.954246,
    "timestamp": "2025-05-16T04:22:48.260080+00:00Z",
    "free_bikes": 2,
    "empty_slots": 1,
    "extra": {
      "uid": "00002503",
      "renting": true,
      "returning": true,
      "last_updated": 1747369328,
      "slots": 3,
      "virtual": false
    }
  },
  {
    "id": "44fdf28dce77359cf951e81e7a450469",
    "name": "119.ファミリーマート那古野南店",
    "latitude": 35.17497,
    "longitude": 136.887116,
    "timestamp": "2025-05-16T04:22:47.835041+00:00Z",
    "free_bikes": 3,
    "empty_slots": 1,
    "extra": {
      "uid": "00000393",
      "renting": true,
      "returning": true,
      "last_updated": 1747369328,
      "slots": 4,
      "virtual": false
    }
  },
  {
    "id": "4583ebf7d0d62a1420a30a9d933520bd",
    "name": "133.愛知韓国人会館",
    "latitude": 35.17823,
    "longitude": 136.876331,
    "timestamp": "2025-05-16T04:22:47.846667+00:00Z",
    "free_bikes": 3,
    "empty_slots": 2,
    "extra": {
      "uid": "00000449",
      "renting": true,
      "returning": true,
      "last_updated": 1747369328,
      "slots": 5,
      "virtual": false
    }
  },
  {
    "id": "45a4b802adcccdefa45f2b0a36536ff5",
    "name": "492.星が丘元町",
    "latitude": 35.161148,
    "longitude": 136.983014,
    "timestamp": "2025-05-16T04:22:48.413004+00:00Z",
    "free_bikes": 6,
    "empty_slots": 0,
    "extra": {
      "uid": "00003171",
      "renting": true,
      "returning": true,
      "last_updated": 1747369328,
      "slots": 6,
      "virtual": false
    }
  },
  {
    "id": "45d69d658b95f98c77c680bc47548cbf",
    "name": "097.ファミリーマート金山五丁目店",
    "latitude": 35.144183,
    "longitude": 136.906696,
    "timestamp": "2025-05-16T04:22:47.816858+00:00Z",
    "free_bikes": 1,
    "empty_slots": 3,
    "extra": {
      "uid": "00000345",
      "renting": true,
      "returning": true,
      "last_updated": 1747369328,
      "slots": 4,
      "virtual": false
    }
  },
  {
    "id": "46ab130cd80a9dcaa7fdc9fabdc6fb76",
    "name": "189.ファミリーマート東外堀町店",
    "latitude": 35.178692,
    "longitude": 136.909857,
    "timestamp": "2025-05-16T04:22:47.925806+00:00Z",
    "free_bikes": 1,
    "empty_slots": 6,
    "extra": {
      "uid": "00000877",
      "renting": true,
      "returning": true,
      "last_updated": 1747369328,
      "slots": 7,
      "virtual": false
    }
  },
  {
    "id": "46c0425577aa4d66a68f7d9f928469a8",
    "name": "395.ファミリーマート瑞穂通二丁目店",
    "latitude": 35.134154,
    "longitude": 136.933868,
    "timestamp": "2025-05-16T04:22:48.220206+00:00Z",
    "free_bikes": 5,
    "empty_slots": 0,
    "extra": {
      "uid": "00002257",
      "renting": true,
      "returning": true,
      "last_updated": 1747369328,
      "slots": 5,
      "virtual": false
    }
  },
  {
    "id": "46e36e849adbed859b2815424fa6a15d",
    "name": "555.EsTRUTH Plus NORTH-NAGOYA",
    "latitude": 35.193044,
    "longitude": 136.924533,
    "timestamp": "2025-05-16T04:22:48.564313+00:00Z",
    "free_bikes": 0,
    "empty_slots": 3,
    "extra": {
      "uid": "00003892",
      "renting": true,
      "returning": true,
      "last_updated": 1747369328,
      "slots": 3,
      "virtual": false
    }
  },
  {
    "id": "471c0d33d5cb4ecbf9e2e640bd7aea03",
    "name": "560.名鉄協商パーキング六番町第６",
    "latitude": 35.126014,
    "longitude": 136.888496,
    "timestamp": "2025-05-16T04:22:48.569447+00:00Z",
    "free_bikes": 5,
    "empty_slots": 0,
    "extra": {
      "uid": "00003929",
      "renting": true,
      "returning": true,
      "last_updated": 1747369328,
      "slots": 5,
      "virtual": false
    }
  },
  {
    "id": "471d8c9efc558c61e1d4e099c8deeb6f",
    "name": "557.名古屋市西区役所",
    "latitude": 35.188897,
    "longitude": 136.890234,
    "timestamp": "2025-05-16T04:22:48.566780+00:00Z",
    "free_bikes": 0,
    "empty_slots": 6,
    "extra": {
      "uid": "00003917",
      "renting": true,
      "returning": true,
      "last_updated": 1747369328,
      "slots": 6,
      "virtual": false
    }
  },
  {
    "id": "4888f038aebc70cc275e5187aae61629",
    "name": "447.久屋大通パーク南",
    "latitude": 35.171972,
    "longitude": 136.908727,
    "timestamp": "2025-05-16T04:22:48.344435+00:00Z",
    "free_bikes": 5,
    "empty_slots": 5,
    "extra": {
      "uid": "00002862",
      "renting": true,
      "returning": true,
      "last_updated": 1747369328,
      "slots": 10,
      "virtual": false
    }
  },
  {
    "id": "48993e99bd698115b143fc6cbb950d52",
    "name": "299.NTT笹島ビル",
    "latitude": 35.175875,
    "longitude": 136.883808,
    "timestamp": "2025-05-16T04:22:48.060454+00:00Z",
    "free_bikes": 9,
    "empty_slots": 0,
    "extra": {
      "uid": "00001613",
      "renting": true,
      "returning": true,
      "last_updated": 1747369328,
      "slots": 9,
      "virtual": false
    }
  },
  {
    "id": "48fda6318ff2f4bd98f6a337d7a7cfd5",
    "name": "029.SAKUMACHI商店街（尼ケ坂駅）",
    "latitude": 35.187878,
    "longitude": 136.918944,
    "timestamp": "2025-05-16T04:22:48.806423+00:00Z",
    "free_bikes": 0,
    "empty_slots": 7,
    "extra": {
      "uid": "00087025",
      "renting": true,
      "returning": true,
      "last_updated": 1747369328,
      "slots": 7,
      "virtual": false
    }
  },
  {
    "id": "49b1145564fd8ab96896bc804a43c38d",
    "name": "435.名鉄協商パーキング東別院北第1",
    "latitude": 35.152638,
    "longitude": 136.902834,
    "timestamp": "2025-05-16T04:22:48.319696+00:00Z",
    "free_bikes": 0,
    "empty_slots": 5,
    "extra": {
      "uid": "00002787",
      "renting": true,
      "returning": true,
      "last_updated": 1747369328,
      "slots": 5,
      "virtual": false
    }
  },
  {
    "id": "4b01e7885b97c26880cb66896c689e1d",
    "name": "570.長久手市杁ケ池体育館　入口前",
    "latitude": 35.167769,
    "longitude": 137.033855,
    "timestamp": "2025-05-16T04:22:48.582367+00:00Z",
    "free_bikes": 3,
    "empty_slots": 2,
    "extra": {
      "uid": "00004050",
      "renting": true,
      "returning": true,
      "last_updated": 1747369328,
      "slots": 5,
      "virtual": false
    }
  },
  {
    "id": "4bb9b93782ac43e776f659d0b4686f1b",
    "name": "051.パナソニック名古屋中村ビル",
    "latitude": 35.164356,
    "longitude": 136.888243,
    "timestamp": "2025-05-16T04:22:48.816341+00:00Z",
    "free_bikes": 7,
    "empty_slots": 0,
    "extra": {
      "uid": "00087046",
      "renting": true,
      "returning": true,
      "last_updated": 1747369328,
      "slots": 7,
      "virtual": false
    }
  },
  {
    "id": "4bc963182756e67d743c5a342ed91c5f",
    "name": "140.ディアレイシャス浅間町",
    "latitude": 35.178861,
    "longitude": 136.890162,
    "timestamp": "2025-05-16T04:22:47.849853+00:00Z",
    "free_bikes": 2,
    "empty_slots": 3,
    "extra": {
      "uid": "00000475",
      "renting": true,
      "returning": true,
      "last_updated": 1747369328,
      "slots": 5,
      "virtual": false
    }
  },
  {
    "id": "4c92713922d98549e1fe05a7ddbef7b7",
    "name": "152.名鉄協商パーキング池内町",
    "latitude": 35.139722,
    "longitude": 136.91022,
    "timestamp": "2025-05-16T04:22:47.864046+00:00Z",
    "free_bikes": 4,
    "empty_slots": 0,
    "extra": {
      "uid": "00000609",
      "renting": true,
      "returning": true,
      "last_updated": 1747369328,
      "slots": 4,
      "virtual": false
    }
  },
  {
    "id": "4ca67536bb7b5e3a0691c1788cb9365b",
    "name": "166.マーケットスクエアささしま",
    "latitude": 35.163163,
    "longitude": 136.884587,
    "timestamp": "2025-05-16T04:22:47.890173+00:00Z",
    "free_bikes": 5,
    "empty_slots": 0,
    "extra": {
      "uid": "00000674",
      "renting": true,
      "returning": true,
      "last_updated": 1747369328,
      "slots": 5,
      "virtual": false
    }
  },
  {
    "id": "4d56dd39c7de1e07c58c28f2f3c30108",
    "name": "287.ファミリーマート熱田金山南店",
    "latitude": 35.142359,
    "longitude": 136.898923,
    "timestamp": "2025-05-16T04:22:48.031322+00:00Z",
    "free_bikes": 0,
    "empty_slots": 3,
    "extra": {
      "uid": "00001491",
      "renting": true,
      "returning": true,
      "last_updated": 1747369328,
      "slots": 3,
      "virtual": false
    }
  },
  {
    "id": "4ef43edf289f42f42a13f2723ed42707",
    "name": "510.名鉄協商パーキング六番町駅前",
    "latitude": 35.123666,
    "longitude": 136.887789,
    "timestamp": "2025-05-16T04:22:48.466994+00:00Z",
    "free_bikes": 2,
    "empty_slots": 1,
    "extra": {
      "uid": "00003460",
      "renting": true,
      "returning": true,
      "last_updated": 1747369328,
      "slots": 3,
      "virtual": false
    }
  },
  {
    "id": "4ef7d7f1ddc39a603c1447fae646daf9",
    "name": "532.小本駅前",
    "latitude": 35.148874,
    "longitude": 136.860509,
    "timestamp": "2025-05-16T04:22:48.483900+00:00Z",
    "free_bikes": 4,
    "empty_slots": 0,
    "extra": {
      "uid": "00003567",
      "renting": true,
      "returning": true,
      "last_updated": 1747369328,
      "slots": 4,
      "virtual": false
    }
  },
  {
    "id": "4f0fb0fd1b7b92f9f3d5dcc622778fa9",
    "name": "392.アーバンラフレ虹ヶ丘西",
    "latitude": 35.158792,
    "longitude": 136.98965,
    "timestamp": "2025-05-16T04:22:48.216465+00:00Z",
    "free_bikes": 2,
    "empty_slots": 1,
    "extra": {
      "uid": "00002224",
      "renting": true,
      "returning": true,
      "last_updated": 1747369328,
      "slots": 3,
      "virtual": false
    }
  },
  {
    "id": "4faf58da0cce49ce847e406321044218",
    "name": "364.名鉄協商パーキング亀島2丁目第10(2)",
    "latitude": 35.17366,
    "longitude": 136.873075,
    "timestamp": "2025-05-16T04:22:48.160676+00:00Z",
    "free_bikes": 2,
    "empty_slots": 0,
    "extra": {
      "uid": "00001952",
      "renting": true,
      "returning": true,
      "last_updated": 1747369328,
      "slots": 2,
      "virtual": false
    }
  },
  {
    "id": "50e39e35002f2d64008a57a99b6848c1",
    "name": "539.名鉄協商パーキング上高畑1丁目第4",
    "latitude": 35.145567,
    "longitude": 136.856965,
    "timestamp": "2025-05-16T04:22:48.487688+00:00Z",
    "free_bikes": 1,
    "empty_slots": 2,
    "extra": {
      "uid": "00003589",
      "renting": true,
      "returning": true,
      "last_updated": 1747369328,
      "slots": 3,
      "virtual": false
    }
  },
  {
    "id": "51370f657647916e40c71ff27bbd4388",
    "name": "367.名鉄協商パーキング虹が丘公園",
    "latitude": 35.15912,
    "longitude": 136.992506,
    "timestamp": "2025-05-16T04:22:48.186048+00:00Z",
    "free_bikes": 0,
    "empty_slots": 3,
    "extra": {
      "uid": "00002117",
      "renting": true,
      "returning": true,
      "last_updated": 1747369328,
      "slots": 3,
      "virtual": false
    }
  },
  {
    "id": "5141f6d71f181c3217366d5024618e41",
    "name": "497.名古屋中郵便局",
    "latitude": 35.161921,
    "longitude": 136.90275,
    "timestamp": "2025-05-16T04:22:48.442067+00:00Z",
    "free_bikes": 2,
    "empty_slots": 4,
    "extra": {
      "uid": "00003380",
      "renting": true,
      "returning": true,
      "last_updated": 1747369328,
      "slots": 6,
      "virtual": false
    }
  },
  {
    "id": "517200a2fdf9b8c00af17bd8f2459401",
    "name": "101.ファミリーマート吹上駅北店",
    "latitude": 35.159844,
    "longitude": 136.935104,
    "timestamp": "2025-05-16T04:22:47.817676+00:00Z",
    "free_bikes": 0,
    "empty_slots": 9,
    "extra": {
      "uid": "00000349",
      "renting": true,
      "returning": true,
      "last_updated": 1747369328,
      "slots": 9,
      "virtual": false
    }
  },
  {
    "id": "5288e3da1c2e142061357dfeadef13da",
    "name": "365.葵3丁目",
    "latitude": 35.172935,
    "longitude": 136.931712,
    "timestamp": "2025-05-16T04:22:48.179693+00:00Z",
    "free_bikes": 3,
    "empty_slots": 3,
    "extra": {
      "uid": "00002107",
      "renting": true,
      "returning": true,
      "last_updated": 1747369328,
      "slots": 6,
      "virtual": false
    }
  },
  {
    "id": "528d1f98c5e22fead468b48490f59602",
    "name": "498.名古屋東郵便局",
    "latitude": 35.183669,
    "longitude": 136.922129,
    "timestamp": "2025-05-16T04:22:48.442264+00:00Z",
    "free_bikes": 1,
    "empty_slots": 5,
    "extra": {
      "uid": "00003381",
      "renting": true,
      "returning": true,
      "last_updated": 1747369328,
      "slots": 6,
      "virtual": false
    }
  },
  {
    "id": "5309e99b3f62bb0af814214a33f10ebc",
    "name": "484.名鉄協商パーキング清水口第３",
    "latitude": 35.183092,
    "longitude": 136.914367,
    "timestamp": "2025-05-16T04:22:48.398417+00:00Z",
    "free_bikes": 1,
    "empty_slots": 2,
    "extra": {
      "uid": "00003126",
      "renting": true,
      "returning": true,
      "last_updated": 1747369328,
      "slots": 3,
      "virtual": false
    }
  },
  {
    "id": "53775086041a007483a257dccd740afb",
    "name": "474.メットライフ名駅南ビル",
    "latitude": 35.165717,
    "longitude": 136.888377,
    "timestamp": "2025-05-16T04:22:48.393751+00:00Z",
    "free_bikes": 0,
    "empty_slots": 8,
    "extra": {
      "uid": "00003090",
      "renting": true,
      "returning": true,
      "last_updated": 1747369328,
      "slots": 8,
      "virtual": false
    }
  },
  {
    "id": "5439a482d5b8c9ba1f0991e2fe721a2f",
    "name": "117.ファミリーマート芳野一丁目店",
    "latitude": 35.184704,
    "longitude": 136.919934,
    "timestamp": "2025-05-16T04:22:47.834736+00:00Z",
    "free_bikes": 0,
    "empty_slots": 3,
    "extra": {
      "uid": "00000392",
      "renting": true,
      "returning": true,
      "last_updated": 1747369328,
      "slots": 3,
      "virtual": false
    }
  },
  {
    "id": "550ba0867db830cf52307a1d37021593",
    "name": "476.メイクスデザイン鶴舞",
    "latitude": 35.160279,
    "longitude": 136.916251,
    "timestamp": "2025-05-16T04:22:48.501999+00:00Z",
    "free_bikes": 0,
    "empty_slots": 3,
    "extra": {
      "uid": "00003608",
      "renting": true,
      "returning": true,
      "last_updated": 1747369328,
      "slots": 3,
      "virtual": false
    }
  },
  {
    "id": "55a98080e72172e2c1f440fadcf35214",
    "name": "519.名鉄協商パーキング亀島２丁目第１１",
    "latitude": 35.175387,
    "longitude": 136.875702,
    "timestamp": "2025-05-16T04:22:48.544650+00:00Z",
    "free_bikes": 3,
    "empty_slots": 1,
    "extra": {
      "uid": "00003800",
      "renting": true,
      "returning": true,
      "last_updated": 1747369328,
      "slots": 4,
      "virtual": false
    }
  },
  {
    "id": "56968429315b323c54dc0a36a5063646",
    "name": "361.ソーネおおぞね",
    "latitude": 35.198931,
    "longitude": 136.936165,
    "timestamp": "2025-05-16T04:22:48.183610+00:00Z",
    "free_bikes": 1,
    "empty_slots": 3,
    "extra": {
      "uid": "00002108",
      "renting": true,
      "returning": true,
      "last_updated": 1747369328,
      "slots": 4,
      "virtual": false
    }
  },
  {
    "id": "56e5d4818baf19391843f04c36a87c5e",
    "name": "143.重工大須病院(南側)",
    "latitude": 35.155161,
    "longitude": 136.894957,
    "timestamp": "2025-05-16T04:22:47.919762+00:00Z",
    "free_bikes": 0,
    "empty_slots": 10,
    "extra": {
      "uid": "00000860",
      "renting": true,
      "returning": true,
      "last_updated": 1747369328,
      "slots": 10,
      "virtual": false
    }
  },
  {
    "id": "57cffdaddc646d88b5a65b48fd340b2e",
    "name": "566.名鉄協商パーキング小幡駅南第3",
    "latitude": 35.199614,
    "longitude": 136.973725,
    "timestamp": "2025-05-16T04:22:48.576455+00:00Z",
    "free_bikes": 1,
    "empty_slots": 2,
    "extra": {
      "uid": "00003982",
      "renting": true,
      "returning": true,
      "last_updated": 1747369328,
      "slots": 3,
      "virtual": false
    }
  },
  {
    "id": "57d2de23f8c3638509523fb452716d7b",
    "name": "341.東海クラリオン",
    "latitude": 35.150749,
    "longitude": 136.896739,
    "timestamp": "2025-05-16T04:22:48.139366+00:00Z",
    "free_bikes": 0,
    "empty_slots": 2,
    "extra": {
      "uid": "00001899",
      "renting": true,
      "returning": true,
      "last_updated": 1747369328,
      "slots": 2,
      "virtual": false
    }
  },
  {
    "id": "584458682e442007e2d61a6b4d530444",
    "name": "433.萱場住宅",
    "latitude": 35.181303,
    "longitude": 136.946006,
    "timestamp": "2025-05-16T04:22:48.303843+00:00Z",
    "free_bikes": 2,
    "empty_slots": 3,
    "extra": {
      "uid": "00002769",
      "renting": true,
      "returning": true,
      "last_updated": 1747369328,
      "slots": 5,
      "virtual": false
    }
  },
  {
    "id": "588f7f93f6929d6a972f9f342a88a961",
    "name": "326.名鉄協商パーキング名駅4丁目第8(2)",
    "latitude": 35.169418,
    "longitude": 136.888497,
    "timestamp": "2025-05-16T04:22:48.093993+00:00Z",
    "free_bikes": 2,
    "empty_slots": 1,
    "extra": {
      "uid": "00001778",
      "renting": true,
      "returning": true,
      "last_updated": 1747369328,
      "slots": 3,
      "virtual": false
    }
  },
  {
    "id": "58b0b677f83e5e1e55a5a2c698e52155",
    "name": "458.KEIZ中川運河店",
    "latitude": 35.129276,
    "longitude": 136.881149,
    "timestamp": "2025-05-16T04:22:48.364914+00:00Z",
    "free_bikes": 8,
    "empty_slots": 0,
    "extra": {
      "uid": "00002910",
      "renting": true,
      "returning": true,
      "last_updated": 1747369328,
      "slots": 8,
      "virtual": false
    }
  },
  {
    "id": "58ea346a52288edca9c66d6c4477e392",
    "name": "374.ファミリーマート児玉西店",
    "latitude": 35.195441,
    "longitude": 136.886913,
    "timestamp": "2025-05-16T04:22:48.198122+00:00Z",
    "free_bikes": 1,
    "empty_slots": 1,
    "extra": {
      "uid": "00002189",
      "renting": true,
      "returning": true,
      "last_updated": 1747369328,
      "slots": 2,
      "virtual": false
    }
  },
  {
    "id": "59e678712bb6f5854a902c693aaf32a4",
    "name": "157.名鉄協商パーキング　泉1丁目第6",
    "latitude": 35.175432,
    "longitude": 136.911707,
    "timestamp": "2025-05-16T04:22:47.865402+00:00Z",
    "free_bikes": 1,
    "empty_slots": 4,
    "extra": {
      "uid": "00000622",
      "renting": true,
      "returning": true,
      "last_updated": 1747369328,
      "slots": 5,
      "virtual": false
    }
  },
  {
    "id": "5a3bacbdec6c8d60071f0b87b5053076",
    "name": "146.名鉄協商パーキング大曽根第11",
    "latitude": 35.192953,
    "longitude": 136.938285,
    "timestamp": "2025-05-16T04:22:47.855143+00:00Z",
    "free_bikes": 6,
    "empty_slots": 0,
    "extra": {
      "uid": "00000563",
      "renting": true,
      "returning": true,
      "last_updated": 1747369328,
      "slots": 6,
      "virtual": false
    }
  },
  {
    "id": "5acc0bdb212a79417ac3d1be9792cd4d",
    "name": "145.リシュドール大須",
    "latitude": 35.161018,
    "longitude": 136.895786,
    "timestamp": "2025-05-16T04:22:47.859397+00:00Z",
    "free_bikes": 4,
    "empty_slots": 0,
    "extra": {
      "uid": "00000577",
      "renting": true,
      "returning": true,
      "last_updated": 1747369328,
      "slots": 4,
      "virtual": false
    }
  },
  {
    "id": "5c1ad1b9b9b5ba5818c8331dc7e22cfe",
    "name": "524.パルティーレ神宮南",
    "latitude": 35.116575,
    "longitude": 136.901124,
    "timestamp": "2025-05-16T04:22:48.483730+00:00Z",
    "free_bikes": 4,
    "empty_slots": 0,
    "extra": {
      "uid": "00003566",
      "renting": true,
      "returning": true,
      "last_updated": 1747369328,
      "slots": 4,
      "virtual": false
    }
  },
  {
    "id": "5c8e03c2e731cbf02ef8fe95c478baa0",
    "name": "062.NTT布池ビル",
    "latitude": 35.175612,
    "longitude": 136.921726,
    "timestamp": "2025-05-16T04:22:47.760995+00:00Z",
    "free_bikes": 1,
    "empty_slots": 2,
    "extra": {
      "uid": "00000138",
      "renting": true,
      "returning": true,
      "last_updated": 1747369328,
      "slots": 3,
      "virtual": false
    }
  },
  {
    "id": "5ce8cd39521d857372dda056fd6c502a",
    "name": "430.重工大須病院(北側)",
    "latitude": 35.155749,
    "longitude": 136.894389,
    "timestamp": "2025-05-16T04:22:48.387017+00:00Z",
    "free_bikes": 0,
    "empty_slots": 4,
    "extra": {
      "uid": "00003061",
      "renting": true,
      "returning": true,
      "last_updated": 1747369328,
      "slots": 4,
      "virtual": false
    }
  },
  {
    "id": "5cee69b5e05b7ea389dd4ea9783b987d",
    "name": "018.名鉄協商パーキング錦通桑名町第２",
    "latitude": 35.169221,
    "longitude": 136.898439,
    "timestamp": "2025-05-16T04:22:48.778246+00:00Z",
    "free_bikes": 5,
    "empty_slots": 0,
    "extra": {
      "uid": "00087005",
      "renting": true,
      "returning": true,
      "last_updated": 1747369328,
      "slots": 5,
      "virtual": false
    }
  },
  {
    "id": "5cf0dc7709746de15e1bd64278fe3fed",
    "name": "082.名鉄協商パーキング新栄第16",
    "latitude": 35.168031,
    "longitude": 136.922982,
    "timestamp": "2025-05-16T04:22:47.785124+00:00Z",
    "free_bikes": 0,
    "empty_slots": 3,
    "extra": {
      "uid": "00000305",
      "renting": true,
      "returning": true,
      "last_updated": 1747369328,
      "slots": 3,
      "virtual": false
    }
  },
  {
    "id": "5d3a68a80aede99aa51f9ab96209c8d5",
    "name": "546.名鉄協商パーキング五軒家町第3",
    "latitude": 35.142508,
    "longitude": 136.949,
    "timestamp": "2025-05-16T04:22:48.517372+00:00Z",
    "free_bikes": 1,
    "empty_slots": 2,
    "extra": {
      "uid": "00003685",
      "renting": true,
      "returning": true,
      "last_updated": 1747369328,
      "slots": 3,
      "virtual": false
    }
  },
  {
    "id": "5d8a50f10af9a6584aabcbe7a3f34c5e",
    "name": "057.名鉄協商パーキング正木第5",
    "latitude": 35.146715,
    "longitude": 136.898239,
    "timestamp": "2025-05-16T04:22:48.822912+00:00Z",
    "free_bikes": 2,
    "empty_slots": 2,
    "extra": {
      "uid": "00087052",
      "renting": true,
      "returning": true,
      "last_updated": 1747369328,
      "slots": 4,
      "virtual": false
    }
  },
  {
    "id": "5dce8b6c33b8b8d12b44ee75015d8d26",
    "name": "306.名鉄協商パーキング山花町",
    "latitude": 35.151743,
    "longitude": 136.950508,
    "timestamp": "2025-05-16T04:22:48.072167+00:00Z",
    "free_bikes": 4,
    "empty_slots": 1,
    "extra": {
      "uid": "00001652",
      "renting": true,
      "returning": true,
      "last_updated": 1747369328,
      "slots": 5,
      "virtual": false
    }
  },
  {
    "id": "5e6dc12c9f79fead9cd21966f6c232fb",
    "name": "507.ヴィラコスモス大曽根",
    "latitude": 35.190552,
    "longitude": 136.935541,
    "timestamp": "2025-05-16T04:22:48.447744+00:00Z",
    "free_bikes": 0,
    "empty_slots": 5,
    "extra": {
      "uid": "00003386",
      "renting": true,
      "returning": true,
      "last_updated": 1747369328,
      "slots": 5,
      "virtual": false
    }
  },
  {
    "id": "6075f8a19d0abbb59b0a77231501112e",
    "name": "311.キャッスルタウン記念橋(3)",
    "latitude": 35.152361,
    "longitude": 136.908101,
    "timestamp": "2025-05-16T04:22:48.084398+00:00Z",
    "free_bikes": 0,
    "empty_slots": 7,
    "extra": {
      "uid": "00001710",
      "renting": true,
      "returning": true,
      "last_updated": 1747369328,
      "slots": 7,
      "virtual": false
    }
  },
  {
    "id": "60bc3769964a283d6366ddf9de105d8b",
    "name": "520.ドコモショップ藤が丘西店",
    "latitude": 35.181179,
    "longitude": 137.00672,
    "timestamp": "2025-05-16T04:22:48.471265+00:00Z",
    "free_bikes": 5,
    "empty_slots": 0,
    "extra": {
      "uid": "00003475",
      "renting": true,
      "returning": true,
      "last_updated": 1747369328,
      "slots": 5,
      "virtual": false
    }
  },
  {
    "id": "613b21cf11fc7a552a385ab908b39416",
    "name": "410.名鉄協商パーキング名駅北第3",
    "latitude": 35.174222,
    "longitude": 136.883019,
    "timestamp": "2025-05-16T04:22:48.246717+00:00Z",
    "free_bikes": 2,
    "empty_slots": 1,
    "extra": {
      "uid": "00002428",
      "renting": true,
      "returning": true,
      "last_updated": 1747369328,
      "slots": 3,
      "virtual": false
    }
  },
  {
    "id": "625418fb7fb0870085ced48e81bc56de",
    "name": "466.グラシア上飯田",
    "latitude": 35.204584,
    "longitude": 136.930746,
    "timestamp": "2025-05-16T04:22:48.369937+00:00Z",
    "free_bikes": 4,
    "empty_slots": 0,
    "extra": {
      "uid": "00002948",
      "renting": true,
      "returning": true,
      "last_updated": 1747369328,
      "slots": 4,
      "virtual": false
    }
  },
  {
    "id": "62799085a911fb81a1700ed8145477a2",
    "name": "188.スクエア名駅南",
    "latitude": 35.16006,
    "longitude": 136.89076,
    "timestamp": "2025-05-16T04:22:47.925287+00:00Z",
    "free_bikes": 7,
    "empty_slots": 0,
    "extra": {
      "uid": "00000876",
      "renting": true,
      "returning": true,
      "last_updated": 1747369328,
      "slots": 7,
      "virtual": false
    }
  },
  {
    "id": "643304c8f939257d207dba1cea446780",
    "name": "477.愛知学院大学歯学部附属病院",
    "latitude": 35.166342,
    "longitude": 136.957039,
    "timestamp": "2025-05-16T04:22:48.396807+00:00Z",
    "free_bikes": 3,
    "empty_slots": 4,
    "extra": {
      "uid": "00003117",
      "renting": true,
      "returning": true,
      "last_updated": 1747369328,
      "slots": 7,
      "virtual": false
    }
  },
  {
    "id": "6593552fd0251a710db32a3dfe0f4314",
    "name": "179.ファミリーマート鶴舞店",
    "latitude": 35.15679,
    "longitude": 136.917269,
    "timestamp": "2025-05-16T04:22:47.911489+00:00Z",
    "free_bikes": 2,
    "empty_slots": 4,
    "extra": {
      "uid": "00000781",
      "renting": true,
      "returning": true,
      "last_updated": 1747369328,
      "slots": 6,
      "virtual": false
    }
  },
  {
    "id": "660182c1862d148fb42012340dd0c657",
    "name": "015.名鉄協商パーキングなごのキャンパス",
    "latitude": 35.175755,
    "longitude": 136.886958,
    "timestamp": "2025-05-16T04:22:48.790615+00:00Z",
    "free_bikes": 1,
    "empty_slots": 3,
    "extra": {
      "uid": "00087015",
      "renting": true,
      "returning": true,
      "last_updated": 1747369328,
      "slots": 4,
      "virtual": false
    }
  },
  {
    "id": "66f9db6877d7d5ddae2c4badc2c0b44d",
    "name": "083.名鉄協商パーキング大曽根第13",
    "latitude": 35.193483,
    "longitude": 136.937774,
    "timestamp": "2025-05-16T04:22:47.785308+00:00Z",
    "free_bikes": 2,
    "empty_slots": 1,
    "extra": {
      "uid": "00000306",
      "renting": true,
      "returning": true,
      "last_updated": 1747369328,
      "slots": 3,
      "virtual": false
    }
  },
  {
    "id": "67c6940c30c0ae3fc5a654f25459f9fa",
    "name": "545.EDGE名駅",
    "latitude": 35.167704,
    "longitude": 136.888776,
    "timestamp": "2025-05-16T04:22:48.538876+00:00Z",
    "free_bikes": 2,
    "empty_slots": 3,
    "extra": {
      "uid": "00003778",
      "renting": true,
      "returning": true,
      "last_updated": 1747369328,
      "slots": 5,
      "virtual": false
    }
  },
  {
    "id": "67f8b0004f5dff5f41740ef82a51ec94",
    "name": "266.ファミリーマート本陣通店",
    "latitude": 35.177353,
    "longitude": 136.866961,
    "timestamp": "2025-05-16T04:22:48.005451+00:00Z",
    "free_bikes": 6,
    "empty_slots": 0,
    "extra": {
      "uid": "00001339",
      "renting": true,
      "returning": true,
      "last_updated": 1747369328,
      "slots": 6,
      "virtual": false
    }
  },
  {
    "id": "680a91de88a61b97983a5573f3fed776",
    "name": "271.ファミリーマート浅間町駅前店",
    "latitude": 35.184028,
    "longitude": 136.890601,
    "timestamp": "2025-05-16T04:22:48.016084+00:00Z",
    "free_bikes": 0,
    "empty_slots": 3,
    "extra": {
      "uid": "00001363",
      "renting": true,
      "returning": true,
      "last_updated": 1747369328,
      "slots": 3,
      "virtual": false
    }
  },
  {
    "id": "680cc9d798a234a52b99a78bcea204b3",
    "name": "249.カレント今池",
    "latitude": 35.169565,
    "longitude": 136.941427,
    "timestamp": "2025-05-16T04:22:48.006098+00:00Z",
    "free_bikes": 0,
    "empty_slots": 3,
    "extra": {
      "uid": "00001341",
      "renting": true,
      "returning": true,
      "last_updated": 1747369328,
      "slots": 3,
      "virtual": false
    }
  },
  {
    "id": "680f092a3de960979a5f18c8cb6c2de5",
    "name": "473.エニシオ名駅",
    "latitude": 35.169326,
    "longitude": 136.885562,
    "timestamp": "2025-05-16T04:22:48.387796+00:00Z",
    "free_bikes": 2,
    "empty_slots": 1,
    "extra": {
      "uid": "00003066",
      "renting": true,
      "returning": true,
      "last_updated": 1747369328,
      "slots": 3,
      "virtual": false
    }
  },
  {
    "id": "69d19ebd4a51ad5431d3212782339123",
    "name": "303.NTT千種第二ビル",
    "latitude": 35.164907,
    "longitude": 136.935845,
    "timestamp": "2025-05-16T04:22:48.061973+00:00Z",
    "free_bikes": 0,
    "empty_slots": 3,
    "extra": {
      "uid": "00001617",
      "renting": true,
      "returning": true,
      "last_updated": 1747369328,
      "slots": 3,
      "virtual": false
    }
  },
  {
    "id": "6ad29ca7daa55337c45a6a4efe63cf77",
    "name": "196.丸山町第4駐車場",
    "latitude": 35.162018,
    "longitude": 136.947779,
    "timestamp": "2025-05-16T04:22:47.941905+00:00Z",
    "free_bikes": 1,
    "empty_slots": 4,
    "extra": {
      "uid": "00000968",
      "renting": true,
      "returning": true,
      "last_updated": 1747369328,
      "slots": 5,
      "virtual": false
    }
  },
  {
    "id": "6af13a920a9fad9f92160f8f233c79ad",
    "name": "332.ファミリーマート瑞穂本願寺二丁目店",
    "latitude": 35.129078,
    "longitude": 136.931915,
    "timestamp": "2025-05-16T04:22:48.116252+00:00Z",
    "free_bikes": 3,
    "empty_slots": 1,
    "extra": {
      "uid": "00001821",
      "renting": true,
      "returning": true,
      "last_updated": 1747369328,
      "slots": 4,
      "virtual": false
    }
  },
  {
    "id": "6b3962442dd5c6187db73951771ac6e6",
    "name": "387.UR尾上",
    "latitude": 35.20103,
    "longitude": 136.924593,
    "timestamp": "2025-05-16T04:22:48.212134+00:00Z",
    "free_bikes": 9,
    "empty_slots": 0,
    "extra": {
      "uid": "00002219",
      "renting": true,
      "returning": true,
      "last_updated": 1747369328,
      "slots": 9,
      "virtual": false
    }
  },
  {
    "id": "6b49979528c17adfd2367fb656c7ecb7",
    "name": "336.ファミリーマート日比津グランド前店",
    "latitude": 35.184501,
    "longitude": 136.859609,
    "timestamp": "2025-05-16T04:22:48.118452+00:00Z",
    "free_bikes": 1,
    "empty_slots": 3,
    "extra": {
      "uid": "00001825",
      "renting": true,
      "returning": true,
      "last_updated": 1747369328,
      "slots": 4,
      "virtual": false
    }
  },
  {
    "id": "6c6ea3048a1c308fb7b8d1b0a5975966",
    "name": "286.錦2丁目ポート錦通第１",
    "latitude": 35.169598,
    "longitude": 136.900399,
    "timestamp": "2025-05-16T04:22:48.026373+00:00Z",
    "free_bikes": 4,
    "empty_slots": 1,
    "extra": {
      "uid": "00001439",
      "renting": true,
      "returning": true,
      "last_updated": 1747369328,
      "slots": 5,
      "virtual": false
    }
  },
  {
    "id": "6cf92cbf3270274ffc93614caaed19a9",
    "name": "340.愛知学院大学 名城公園キャンパス(南側)",
    "latitude": 35.186653,
    "longitude": 136.904983,
    "timestamp": "2025-05-16T04:22:48.140808+00:00Z",
    "free_bikes": 7,
    "empty_slots": 3,
    "extra": {
      "uid": "00001903",
      "renting": true,
      "returning": true,
      "last_updated": 1747369328,
      "slots": 10,
      "virtual": false
    }
  },
  {
    "id": "6d13ce92385913bbe0f1703d5b3b1e30",
    "name": "379.浄心南自転車駐車場",
    "latitude": 35.191204,
    "longitude": 136.890907,
    "timestamp": "2025-05-16T04:22:48.228598+00:00Z",
    "free_bikes": 2,
    "empty_slots": 3,
    "extra": {
      "uid": "00002310",
      "renting": true,
      "returning": true,
      "last_updated": 1747369328,
      "slots": 5,
      "virtual": false
    }
  },
  {
    "id": "6db2a95adb71b25bbad6500a31ee5720",
    "name": "164.オアシス21前ステーション",
    "latitude": 35.17094,
    "longitude": 136.909036,
    "timestamp": "2025-05-16T04:22:47.901557+00:00Z",
    "free_bikes": 10,
    "empty_slots": 0,
    "extra": {
      "uid": "00000724",
      "renting": true,
      "returning": true,
      "last_updated": 1747369328,
      "slots": 10,
      "virtual": false
    }
  },
  {
    "id": "6dd35b57c89d81a9d4d208e15abc5786",
    "name": "001. 名鉄名古屋駅（１）",
    "latitude": 35.169221,
    "longitude": 136.883608,
    "timestamp": "2025-05-16T04:22:48.774782+00:00Z",
    "free_bikes": 9,
    "empty_slots": 0,
    "extra": {
      "uid": "00087001",
      "renting": true,
      "returning": true,
      "last_updated": 1747369328,
      "slots": 9,
      "virtual": false
    }
  },
  {
    "id": "6e21759c793568497b6e3fee37579b0e",
    "name": "415.金シャチ横丁 宗春ゾーン",
    "latitude": 35.182892,
    "longitude": 136.904976,
    "timestamp": "2025-05-16T04:22:48.277820+00:00Z",
    "free_bikes": 2,
    "empty_slots": 2,
    "extra": {
      "uid": "00002629",
      "renting": true,
      "returning": true,
      "last_updated": 1747369328,
      "slots": 4,
      "virtual": false
    }
  },
  {
    "id": "6ea60cdb3193e4bfb46679b1561cdd1f",
    "name": "574.メイクス熱田大宝",
    "latitude": 35.129703,
    "longitude": 136.89194,
    "timestamp": "2025-05-16T04:22:48.584034+00:00Z",
    "free_bikes": 0,
    "empty_slots": 3,
    "extra": {
      "uid": "00004062",
      "renting": true,
      "returning": true,
      "last_updated": 1747369328,
      "slots": 3,
      "virtual": false
    }
  },
  {
    "id": "6ebecd98880b96fbee64317976e9f734",
    "name": "064.NTT上前津ビル",
    "latitude": 35.159334,
    "longitude": 136.907351,
    "timestamp": "2025-05-16T04:22:47.761302+00:00Z",
    "free_bikes": 4,
    "empty_slots": 1,
    "extra": {
      "uid": "00000140",
      "renting": true,
      "returning": true,
      "last_updated": 1747369328,
      "slots": 5,
      "virtual": false
    }
  },
  {
    "id": "6f7fdc3173f0a5e9ff30d3f2f1178033",
    "name": "487.花の木1丁目",
    "latitude": 35.186118,
    "longitude": 136.887934,
    "timestamp": "2025-05-16T04:22:48.408372+00:00Z",
    "free_bikes": 2,
    "empty_slots": 2,
    "extra": {
      "uid": "00003142",
      "renting": true,
      "returning": true,
      "last_updated": 1747369328,
      "slots": 4,
      "virtual": false
    }
  },
  {
    "id": "716a97aff6c4c08fa3312734132d472e",
    "name": "255.ファミリーマート那古野二丁目店",
    "latitude": 35.176725,
    "longitude": 136.889587,
    "timestamp": "2025-05-16T04:22:47.997339+00:00Z",
    "free_bikes": 0,
    "empty_slots": 3,
    "extra": {
      "uid": "00001260",
      "renting": true,
      "returning": true,
      "last_updated": 1747369328,
      "slots": 3,
      "virtual": false
    }
  },
  {
    "id": "71ad4290a7de393d3f26e512af139fad",
    "name": "369.名鉄協商パーキング児玉3丁目第2",
    "latitude": 35.193572,
    "longitude": 136.883305,
    "timestamp": "2025-05-16T04:22:48.196995+00:00Z",
    "free_bikes": 0,
    "empty_slots": 3,
    "extra": {
      "uid": "00002186",
      "renting": true,
      "returning": true,
      "last_updated": 1747369328,
      "slots": 3,
      "virtual": false
    }
  },
  {
    "id": "71fd80ad8fe82c64fa814c2a694bab24",
    "name": "573.名鉄協商パーキング瓢箪山駅前",
    "latitude": 35.197691,
    "longitude": 136.965428,
    "timestamp": "2025-05-16T04:22:48.584487+00:00Z",
    "free_bikes": 4,
    "empty_slots": 0,
    "extra": {
      "uid": "00004065",
      "renting": true,
      "returning": true,
      "last_updated": 1747369328,
      "slots": 4,
      "virtual": false
    }
  },
  {
    "id": "72290a2bfbce5c80bd42dc465c1c55c4",
    "name": "505.名鉄協商パーキング新瑞橋第8",
    "latitude": 35.121637,
    "longitude": 136.936265,
    "timestamp": "2025-05-16T04:22:48.466694+00:00Z",
    "free_bikes": 8,
    "empty_slots": 0,
    "extra": {
      "uid": "00003459",
      "renting": true,
      "returning": true,
      "last_updated": 1747369328,
      "slots": 8,
      "virtual": false
    }
  },
  {
    "id": "72506cdb4035a9ab64a4f3b49967a029",
    "name": "252.ファミリーマート名西枇杷島店",
    "latitude": 35.196775,
    "longitude": 136.874928,
    "timestamp": "2025-05-16T04:22:47.995174+00:00Z",
    "free_bikes": 1,
    "empty_slots": 4,
    "extra": {
      "uid": "00001256",
      "renting": true,
      "returning": true,
      "last_updated": 1747369328,
      "slots": 5,
      "virtual": false
    }
  },
  {
    "id": "7301ce7866c6f6aa728ed965ef544bd6",
    "name": "136.ファミリーマート明和高校前店",
    "latitude": 35.183047,
    "longitude": 136.909761,
    "timestamp": "2025-05-16T04:22:47.847481+00:00Z",
    "free_bikes": 1,
    "empty_slots": 3,
    "extra": {
      "uid": "00000455",
      "renting": true,
      "returning": true,
      "last_updated": 1747369328,
      "slots": 4,
      "virtual": false
    }
  },
  {
    "id": "732cca71877fbc6fbd30c2bc0d1480c6",
    "name": "455.COLLECT MARK 金山（2）",
    "latitude": 35.142251,
    "longitude": 136.903377,
    "timestamp": "2025-05-16T04:22:48.364501+00:00Z",
    "free_bikes": 0,
    "empty_slots": 6,
    "extra": {
      "uid": "00002907",
      "renting": true,
      "returning": true,
      "last_updated": 1747369328,
      "slots": 6,
      "virtual": false
    }
  },
  {
    "id": "732e1065deed35dacc711bf382ecf82e",
    "name": "055.名鉄協商パーキング名駅4丁目第１１",
    "latitude": 35.170213,
    "longitude": 136.885764,
    "timestamp": "2025-05-16T04:22:48.820030+00:00Z",
    "free_bikes": 3,
    "empty_slots": 4,
    "extra": {
      "uid": "00087050",
      "renting": true,
      "returning": true,
      "last_updated": 1747369328,
      "slots": 7,
      "virtual": false
    }
  },
  {
    "id": "7346d6f04144f4c381bbbb174648c581",
    "name": "205.名鉄協商パーキング檀渓通第２",
    "latitude": 35.145141,
    "longitude": 136.945896,
    "timestamp": "2025-05-16T04:22:48.025046+00:00Z",
    "free_bikes": 2,
    "empty_slots": 2,
    "extra": {
      "uid": "00001429",
      "renting": true,
      "returning": true,
      "last_updated": 1747369328,
      "slots": 4,
      "virtual": false
    }
  },
  {
    "id": "735f224b656eaa605398b3a0934c486a",
    "name": "302.NTT矢田ビル",
    "latitude": 35.184746,
    "longitude": 136.942009,
    "timestamp": "2025-05-16T04:22:48.065618+00:00Z",
    "free_bikes": 5,
    "empty_slots": 0,
    "extra": {
      "uid": "00001618",
      "renting": true,
      "returning": true,
      "last_updated": 1747369328,
      "slots": 5,
      "virtual": false
    }
  },
  {
    "id": "74630a33a6980c9473bdb348e34911e0",
    "name": "118.ライブコート泉",
    "latitude": 35.177033,
    "longitude": 136.908939,
    "timestamp": "2025-05-16T04:22:47.829311+00:00Z",
    "free_bikes": 2,
    "empty_slots": 3,
    "extra": {
      "uid": "00000388",
      "renting": true,
      "returning": true,
      "last_updated": 1747369328,
      "slots": 5,
      "virtual": false
    }
  },
  {
    "id": "748619582ccdb08b605acd7e05a05c8c",
    "name": "391.アーバンラフレ虹ヶ丘南",
    "latitude": 35.156782,
    "longitude": 136.991964,
    "timestamp": "2025-05-16T04:22:48.215213+00:00Z",
    "free_bikes": 1,
    "empty_slots": 5,
    "extra": {
      "uid": "00002223",
      "renting": true,
      "returning": true,
      "last_updated": 1747369328,
      "slots": 6,
      "virtual": false
    }
  },
  {
    "id": "755c36e8c3b4439434ea592c78ae019d",
    "name": "226.ファミリーマート名西名塚町店",
    "latitude": 35.205701,
    "longitude": 136.886858,
    "timestamp": "2025-05-16T04:22:47.979324+00:00Z",
    "free_bikes": 1,
    "empty_slots": 2,
    "extra": {
      "uid": "00001184",
      "renting": true,
      "returning": true,
      "last_updated": 1747369328,
      "slots": 3,
      "virtual": false
    }
  },
  {
    "id": "75da42a383bbc590a6ee1089b071191a",
    "name": "225.ファミリーマート太閤通八丁目店",
    "latitude": 35.167983,
    "longitude": 136.857972,
    "timestamp": "2025-05-16T04:22:47.979009+00:00Z",
    "free_bikes": 1,
    "empty_slots": 4,
    "extra": {
      "uid": "00001183",
      "renting": true,
      "returning": true,
      "last_updated": 1747369328,
      "slots": 5,
      "virtual": false
    }
  },
  {
    "id": "765ca2b50e4e680ac252c5a24b36564a",
    "name": "165.名古屋ビルディング桜館",
    "latitude": 35.17128,
    "longitude": 136.887659,
    "timestamp": "2025-05-16T04:22:47.886366+00:00Z",
    "free_bikes": 3,
    "empty_slots": 1,
    "extra": {
      "uid": "00000671",
      "renting": true,
      "returning": true,
      "last_updated": 1747369328,
      "slots": 4,
      "virtual": false
    }
  },
  {
    "id": "76d919de0f79e5f4c944f4090f055b90",
    "name": "509.弥富町緑ケ岡",
    "latitude": 35.134171,
    "longitude": 136.956919,
    "timestamp": "2025-05-16T04:22:48.469145+00:00Z",
    "free_bikes": 3,
    "empty_slots": 2,
    "extra": {
      "uid": "00003472",
      "renting": true,
      "returning": true,
      "last_updated": 1747369328,
      "slots": 5,
      "virtual": false
    }
  },
  {
    "id": "7719428485195bf77ca6c9d84332d9f0",
    "name": "215.JR千種駅（地上改札）",
    "latitude": 35.170058,
    "longitude": 136.93067,
    "timestamp": "2025-05-16T04:22:47.946336+00:00Z",
    "free_bikes": 2,
    "empty_slots": 4,
    "extra": {
      "uid": "00001069",
      "renting": true,
      "returning": true,
      "last_updated": 1747369328,
      "slots": 6,
      "virtual": false
    }
  },
  {
    "id": "77249bc61e366268e90a42c68c6cf969",
    "name": "059.愛知大学　名古屋キャンパス",
    "latitude": 35.161967,
    "longitude": 136.885381,
    "timestamp": "2025-05-16T04:22:48.823243+00:00Z",
    "free_bikes": 14,
    "empty_slots": 0,
    "extra": {
      "uid": "00087054",
      "renting": true,
      "returning": true,
      "last_updated": 1747369328,
      "slots": 14,
      "virtual": false
    }
  },
  {
    "id": "78ea1ed067478af1d8b96783da8ad2d1",
    "name": "046.RT白川ビル",
    "latitude": 35.166934,
    "longitude": 136.901612,
    "timestamp": "2025-05-16T04:22:48.811582+00:00Z",
    "free_bikes": 9,
    "empty_slots": 0,
    "extra": {
      "uid": "00087041",
      "renting": true,
      "returning": true,
      "last_updated": 1747369328,
      "slots": 9,
      "virtual": false
    }
  },
  {
    "id": "79665f856ee85c4f9a76cb8c07f7a295",
    "name": "380.浅間町北自転車駐車場",
    "latitude": 35.184994,
    "longitude": 136.890513,
    "timestamp": "2025-05-16T04:22:48.229019+00:00Z",
    "free_bikes": 0,
    "empty_slots": 3,
    "extra": {
      "uid": "00002311",
      "renting": true,
      "returning": true,
      "last_updated": 1747369328,
      "slots": 3,
      "virtual": false
    }
  },
  {
    "id": "7985682c1f114046a7665c7a969fb7b5",
    "name": "515.メイクス上前津Ⅳ",
    "latitude": 35.154135,
    "longitude": 136.900738,
    "timestamp": "2025-05-16T04:22:48.467652+00:00Z",
    "free_bikes": 0,
    "empty_slots": 2,
    "extra": {
      "uid": "00003466",
      "renting": true,
      "returning": true,
      "last_updated": 1747369328,
      "slots": 2,
      "virtual": false
    }
  },
  {
    "id": "79af4d6157b8200cb374f3e367a50690",
    "name": "295.名鉄協商パーキング笹島南",
    "latitude": 35.166868,
    "longitude": 136.884685,
    "timestamp": "2025-05-16T04:22:48.059560+00:00Z",
    "free_bikes": 3,
    "empty_slots": 8,
    "extra": {
      "uid": "00001612",
      "renting": true,
      "returning": true,
      "last_updated": 1747369328,
      "slots": 11,
      "virtual": false
    }
  },
  {
    "id": "7a1cf89ad0f3c8d156deaaa719cdf048",
    "name": "135.ファミリーマート名駅柳橋店",
    "latitude": 35.169544,
    "longitude": 136.889503,
    "timestamp": "2025-05-16T04:22:47.847185+00:00Z",
    "free_bikes": 7,
    "empty_slots": 0,
    "extra": {
      "uid": "00000454",
      "renting": true,
      "returning": true,
      "last_updated": 1747369328,
      "slots": 7,
      "virtual": false
    }
  },
  {
    "id": "7a80ed214cb277f58b0940168073b07e",
    "name": "446.久屋大通パーク北",
    "latitude": 35.17786,
    "longitude": 136.907505,
    "timestamp": "2025-05-16T04:22:48.346754+00:00Z",
    "free_bikes": 7,
    "empty_slots": 3,
    "extra": {
      "uid": "00002864",
      "renting": true,
      "returning": true,
      "last_updated": 1747369328,
      "slots": 10,
      "virtual": false
    }
  },
  {
    "id": "7b2dae5056d444b9f24cdee6cf0c3e7c",
    "name": "431.若水住宅",
    "latitude": 35.177069,
    "longitude": 136.946755,
    "timestamp": "2025-05-16T04:22:48.301529+00:00Z",
    "free_bikes": 0,
    "empty_slots": 5,
    "extra": {
      "uid": "00002767",
      "renting": true,
      "returning": true,
      "last_updated": 1747369328,
      "slots": 5,
      "virtual": false
    }
  },
  {
    "id": "7c3a8c9053f1eace88517328f72c93a7",
    "name": "045.名鉄協商パーキング池田公園PB",
    "latitude": 35.166924,
    "longitude": 136.913092,
    "timestamp": "2025-05-16T04:22:48.811264+00:00Z",
    "free_bikes": 1,
    "empty_slots": 2,
    "extra": {
      "uid": "00087040",
      "renting": true,
      "returning": true,
      "last_updated": 1747369328,
      "slots": 3,
      "virtual": false
    }
  },
  {
    "id": "7cb9bc2abc3de68033a33f84c295f812",
    "name": "123.ファミリーマート中村大宮町店",
    "latitude": 35.166588,
    "longitude": 136.86575,
    "timestamp": "2025-05-16T04:22:47.837147+00:00Z",
    "free_bikes": 2,
    "empty_slots": 1,
    "extra": {
      "uid": "00000397",
      "renting": true,
      "returning": true,
      "last_updated": 1747369328,
      "slots": 3,
      "virtual": false
    }
  },
  {
    "id": "7e37ae1b536aa60429b204d282f47776",
    "name": "040.名鉄協商パーキング　那古野2丁目",
    "latitude": 35.174671,
    "longitude": 136.889152,
    "timestamp": "2025-05-16T04:22:48.807978+00:00Z",
    "free_bikes": 0,
    "empty_slots": 4,
    "extra": {
      "uid": "00087035",
      "renting": true,
      "returning": true,
      "last_updated": 1747369328,
      "slots": 4,
      "virtual": false
    }
  },
  {
    "id": "7e3838ab45a90d7986a95bc47f96b911",
    "name": "177.名鉄協商パーキング数寄屋町",
    "latitude": 35.189531,
    "longitude": 136.89655,
    "timestamp": "2025-05-16T04:22:47.904850+00:00Z",
    "free_bikes": 0,
    "empty_slots": 4,
    "extra": {
      "uid": "00000748",
      "renting": true,
      "returning": true,
      "last_updated": 1747369328,
      "slots": 4,
      "virtual": false
    }
  },
  {
    "id": "7efb60ec5166c27431903d8841344b98",
    "name": "253.ファミリーマート中村向島店",
    "latitude": 35.164378,
    "longitude": 136.85031,
    "timestamp": "2025-05-16T04:22:47.995482+00:00Z",
    "free_bikes": 2,
    "empty_slots": 2,
    "extra": {
      "uid": "00001257",
      "renting": true,
      "returning": true,
      "last_updated": 1747369328,
      "slots": 4,
      "virtual": false
    }
  },
  {
    "id": "7fcf5c6a88723d5ade112f0c07d17266",
    "name": "488.久屋大通庭園フラリエ",
    "latitude": 35.161633,
    "longitude": 136.908494,
    "timestamp": "2025-05-16T04:22:48.418727+00:00Z",
    "free_bikes": 7,
    "empty_slots": 3,
    "extra": {
      "uid": "00003195",
      "renting": true,
      "returning": true,
      "last_updated": 1747369328,
      "slots": 10,
      "virtual": false
    }
  },